[
  {
    "slug": "vail",
    "name": "Vail",
    "state_province": "CO",
    "region": "Central Rockies",
    "latitude": 39.6403,
    "longitude": -106.3742,
    "elevation_summit_ft": 11570,
    "snow_24h": 0.0,
    "snow_48h": 0.2,
    "snow_7d": 3.4,
    "current_temp": 46.3,
    "conditions": "Partly Cloudy"
  },
  {
    "slug": "breckenridge",
    "name": "Breckenridge",
    "state_province": "CO",
    "region": "Central Rockies",
    "latitude": 39.4817,
    "longitude": -106.0384,
    "elevation_summit_ft": 12998,
    "snow_24h": 0.0,
    "snow_48h": 0.3,
    "snow_7d": 6.4,
    "current_temp": 40.1,
    "conditions": "Overcast"
  },
  {
    "slug": "aspen-snowmass",
    "name": "Aspen Snowmass",
    "state_province": "CO",
    "region": "Central Rockies",
    "latitude": 39.2084,
    "longitude": -106.949,
    "elevation_summit_ft": 12510,
    "snow_24h": 0.0,
    "snow_48h": 1.1,
    "snow_7d": 3.6,
    "current_temp": 48.0,
    "conditions": "Overcast"
  },
  {
    "slug": "steamboat",
    "name": "Steamboat",
    "state_province": "CO",
    "region": "Central Rockies",
    "latitude": 40.4572,
    "longitude": -106.8045,
    "elevation_summit_ft": 10568,
    "snow_24h": 0.0,
    "snow_48h": 0.0,
    "snow_7d": 1.8,
    "current_temp": 48.4,
    "conditions": "Overcast"
  },
  {
    "slug": "copper-mountain",
    "name": "Copper Mountain",
    "state_province": "CO",
    "region": "Central Rockies",
    "latitude": 39.5022,
    "longitude": -106.1497,
    "elevation_summit_ft": 12313,
    "snow_24h": 0.0,
    "snow_48h": 0.7,
    "snow_7d": 5.8,
    "current_temp": 41.6,
    "conditions": "Overcast"
  },
  {
    "slug": "winter-park",
    "name": "Winter Park",
    "state_province": "CO",
    "region": "Central Rockies",
    "latitude": 39.8868,
    "longitude": -105.7625,
    "elevation_summit_ft": 12060,
    "snow_24h": 0.0,
    "snow_48h": 0.1,
    "snow_7d": 6.3,
    "current_temp": 44.4,
    "conditions": "Overcast"
  },
  {
    "slug": "keystone",
    "name": "Keystone",
    "state_province": "CO",
    "region": "Central Rockies",
    "latitude": 39.6046,
    "longitude": -105.9498,
    "elevation_summit_ft": 12408,
    "snow_24h": 0.0,
    "snow_48h": 0.2,
    "snow_7d": 6.9,
    "current_temp": 43.3,
    "conditions": "Overcast"
  },
  {
    "slug": "arapahoe-basin",
    "name": "Arapahoe Basin",
    "state_province": "CO",
    "region": "Central Rockies",
    "latitude": 39.6425,
    "longitude": -105.8719,
    "elevation_summit_ft": 13050,
    "snow_24h": 0.0,
    "snow_48h": 0.3,
    "snow_7d": 7.9,
    "current_temp": 36.7,
    "conditions": "Overcast"
  },
  {
    "slug": "telluride",
    "name": "Telluride",
    "state_province": "CO",
    "region": "Central Rockies",
    "latitude": 37.9375,
    "longitude": -107.8123,
    "elevation_summit_ft": 13150,
    "snow_24h": 0.0,
    "snow_48h": 0.0,
    "snow_7d": 1.7,
    "current_temp": 47.3,
    "conditions": "Overcast"
  },
  {
    "slug": "crested-butte",
    "name": "Crested Butte",
    "state_province": "CO",
    "region": "Central Rockies",
    "latitude": 38.8986,
    "longitude": -106.965,
    "elevation_summit_ft": 12162,
    "snow_24h": 0.0,
    "snow_48h": 0.3,
    "snow_7d": 2.2,
    "current_temp": 43.4,
    "conditions": "Overcast"
  },
  {
    "slug": "loveland",
    "name": "Loveland",
    "state_province": "CO",
    "region": "Central Rockies",
    "latitude": 39.68,
    "longitude": -105.8978,
    "elevation_summit_ft": 13010,
    "snow_24h": 0.0,
    "snow_48h": 0.4,
    "snow_7d": 8.3,
    "current_temp": 35.6,
    "conditions": "Overcast"
  },
  {
    "slug": "monarch-mountain",
    "name": "Monarch Mountain",
    "state_province": "CO",
    "region": "Central Rockies",
    "latitude": 38.5125,
    "longitude": -106.3322,
    "elevation_summit_ft": 11952,
    "snow_24h": 0.0,
    "snow_48h": 0.0,
    "snow_7d": 5.0,
    "current_temp": 38.1,
    "conditions": "Overcast"
  },
  {
    "slug": "wolf-creek",
    "name": "Wolf Creek",
    "state_province": "CO",
    "region": "Central Rockies",
    "latitude": 37.4725,
    "longitude": -106.7934,
    "elevation_summit_ft": 11904,
    "snow_24h": 0.0,
    "snow_48h": 0.0,
    "snow_7d": 1.8,
    "current_temp": 38.8,
    "conditions": "Overcast"
  },
  {
    "slug": "purgatory",
    "name": "Purgatory",
    "state_province": "CO",
    "region": "Central Rockies",
    "latitude": 37.6303,
    "longitude": -107.8139,
    "elevation_summit_ft": 10822,
    "snow_24h": 0.0,
    "snow_48h": 0.0,
    "snow_7d": 1.1,
    "current_temp": 49.1,
    "conditions": "Overcast"
  },
  {
    "slug": "eldora",
    "name": "Eldora",
    "state_province": "CO",
    "region": "Central Rockies",
    "latitude": 39.9372,
    "longitude": -105.5828,
    "elevation_summit_ft": 10800,
    "snow_24h": 0.0,
    "snow_48h": 0.0,
    "snow_7d": 9.1,
    "current_temp": 42.0,
    "conditions": "Overcast"
  },
  {
    "slug": "aspen-mountain",
    "name": "Aspen Mountain",
    "state_province": "CO",
    "region": "Central Rockies",
    "latitude": 39.1869,
    "longitude": -106.8182,
    "elevation_summit_ft": 11212,
    "snow_24h": 0.0,
    "snow_48h": 0.2,
    "snow_7d": 2.2,
    "current_temp": 48.6,
    "conditions": "Overcast"
  },
  {
    "slug": "aspen-highlands",
    "name": "Aspen Highlands",
    "state_province": "CO",
    "region": "Central Rockies",
    "latitude": 39.1789,
    "longitude": -106.8556,
    "elevation_summit_ft": 11675,
    "snow_24h": 0.0,
    "snow_48h": 0.2,
    "snow_7d": 2.8,
    "current_temp": 47.4,
    "conditions": "Overcast"
  },
  {
    "slug": "buttermilk",
    "name": "Buttermilk",
    "state_province": "CO",
    "region": "Central Rockies",
    "latitude": 39.1686,
    "longitude": -106.8683,
    "elevation_summit_ft": 9900,
    "snow_24h": 0.0,
    "snow_48h": 0.4,
    "snow_7d": 3.3,
    "current_temp": 42.5,
    "conditions": "Overcast"
  },
  {
    "slug": "silverton-mountain",
    "name": "Silverton Mountain",
    "state_province": "CO",
    "region": "Central Rockies",
    "latitude": 37.8847,
    "longitude": -107.665,
    "elevation_summit_ft": 13487,
    "snow_24h": 0.0,
    "snow_48h": 0.1,
    "snow_7d": 3.3,
    "current_temp": 38.9,
    "conditions": "Overcast"
  },
  {
    "slug": "sunlight-mountain",
    "name": "Sunlight Mountain",
    "state_province": "CO",
    "region": "Central Rockies",
    "latitude": 39.3997,
    "longitude": -107.3392,
    "elevation_summit_ft": 9895,
    "snow_24h": 0.0,
    "snow_48h": 0.2,
    "snow_7d": 2.3,
    "current_temp": 46.3,
    "conditions": "Overcast"
  },
  {
    "slug": "ski-cooper",
    "name": "Ski Cooper",
    "state_province": "CO",
    "region": "Central Rockies",
    "latitude": 39.3611,
    "longitude": -106.3028,
    "elevation_summit_ft": 11700,
    "snow_24h": 0.0,
    "snow_48h": 0.5,
    "snow_7d": 5.0,
    "current_temp": 36.9,
    "conditions": "Overcast"
  },
  {
    "slug": "powderhorn",
    "name": "Powderhorn",
    "state_province": "CO",
    "region": "Central Rockies",
    "latitude": 39.0694,
    "longitude": -108.1506,
    "elevation_summit_ft": 9850,
    "snow_24h": 0.0,
    "snow_48h": 0.0,
    "snow_7d": 2.1,
    "current_temp": 47.9,
    "conditions": "Overcast"
  },
  {
    "slug": "ski-granby-ranch",
    "name": "Ski Granby Ranch",
    "state_province": "CO",
    "region": "Central Rockies",
    "latitude": 40.0417,
    "longitude": -105.9167,
    "elevation_summit_ft": 9202,
    "snow_24h": 0.0,
    "snow_48h": 0.6,
    "snow_7d": 4.8,
    "current_temp": 44.4,
    "conditions": "Overcast"
  },
  {
    "slug": "howelsen-hill",
    "name": "Howelsen Hill",
    "state_province": "CO",
    "region": "Central Rockies",
    "latitude": 40.4841,
    "longitude": -106.8364,
    "elevation_summit_ft": 7136,
    "snow_24h": 0.0,
    "snow_48h": 0.0,
    "snow_7d": 1.2,
    "current_temp": 49.5,
    "conditions": "Overcast"
  },
  {
    "slug": "park-city",
    "name": "Park City",
    "state_province": "UT",
    "region": "Wasatch / Utah",
    "latitude": 40.6514,
    "longitude": -111.508,
    "elevation_summit_ft": 10026,
    "snow_24h": 0.0,
    "snow_48h": 0.7,
    "snow_7d": 4.9,
    "current_temp": 45.6,
    "conditions": "Overcast"
  },
  {
    "slug": "snowbird",
    "name": "Snowbird",
    "state_province": "UT",
    "region": "Wasatch / Utah",
    "latitude": 40.583,
    "longitude": -111.6508,
    "elevation_summit_ft": 11000,
    "snow_24h": 0.0,
    "snow_48h": 2.1,
    "snow_7d": 12.2,
    "current_temp": 43.4,
    "conditions": "Overcast"
  },
  {
    "slug": "alta",
    "name": "Alta",
    "state_province": "UT",
    "region": "Wasatch / Utah",
    "latitude": 40.5884,
    "longitude": -111.6386,
    "elevation_summit_ft": 10550,
    "snow_24h": 0.0,
    "snow_48h": 2.2,
    "snow_7d": 13.2,
    "current_temp": 41.4,
    "conditions": "Overcast"
  },
  {
    "slug": "brighton",
    "name": "Brighton",
    "state_province": "UT",
    "region": "Wasatch / Utah",
    "latitude": 40.598,
    "longitude": -111.5833,
    "elevation_summit_ft": 10500,
    "snow_24h": 0.2,
    "snow_48h": 2.0,
    "snow_7d": 10.0,
    "current_temp": 40.4,
    "conditions": "Overcast"
  },
  {
    "slug": "solitude",
    "name": "Solitude",
    "state_province": "UT",
    "region": "Wasatch / Utah",
    "latitude": 40.62,
    "longitude": -111.5928,
    "elevation_summit_ft": 10035,
    "snow_24h": 0.0,
    "snow_48h": 2.4,
    "snow_7d": 9.7,
    "current_temp": 41.9,
    "conditions": "Overcast"
  },
  {
    "slug": "deer-valley",
    "name": "Deer Valley",
    "state_province": "UT",
    "region": "Wasatch / Utah",
    "latitude": 40.6375,
    "longitude": -111.4783,
    "elevation_summit_ft": 9570,
    "snow_24h": 0.0,
    "snow_48h": 0.6,
    "snow_7d": 4.2,
    "current_temp": 45.1,
    "conditions": "Overcast"
  },
  {
    "slug": "powder-mountain",
    "name": "Powder Mountain",
    "state_province": "UT",
    "region": "Wasatch / Utah",
    "latitude": 41.3786,
    "longitude": -111.7803,
    "elevation_summit_ft": 9422,
    "snow_24h": 1.0,
    "snow_48h": 5.3,
    "snow_7d": 9.9,
    "current_temp": 38.7,
    "conditions": "Overcast"
  },
  {
    "slug": "snowbasin",
    "name": "Snowbasin",
    "state_province": "UT",
    "region": "Wasatch / Utah",
    "latitude": 41.216,
    "longitude": -111.8569,
    "elevation_summit_ft": 9350,
    "snow_24h": 0.0,
    "snow_48h": 0.5,
    "snow_7d": 3.2,
    "current_temp": 49.1,
    "conditions": "Overcast"
  },
  {
    "slug": "brian-head",
    "name": "Brian Head",
    "state_province": "UT",
    "region": "Wasatch / Utah",
    "latitude": 37.7022,
    "longitude": -112.8497,
    "elevation_summit_ft": 11307,
    "snow_24h": 0.0,
    "snow_48h": 0.1,
    "snow_7d": 8.1,
    "current_temp": 46.4,
    "conditions": "Clear"
  },
  {
    "slug": "sundance",
    "name": "Sundance",
    "state_province": "UT",
    "region": "Wasatch / Utah",
    "latitude": 40.3933,
    "longitude": -111.5886,
    "elevation_summit_ft": 8250,
    "snow_24h": 0.0,
    "snow_48h": 0.2,
    "snow_7d": 4.0,
    "current_temp": 48.5,
    "conditions": "Overcast"
  },
  {
    "slug": "beaver-mountain",
    "name": "Beaver Mountain",
    "state_province": "UT",
    "region": "Wasatch / Utah",
    "latitude": 41.9686,
    "longitude": -111.5442,
    "elevation_summit_ft": 8860,
    "snow_24h": 0.9,
    "snow_48h": 2.3,
    "snow_7d": 5.6,
    "current_temp": 38.2,
    "conditions": "Overcast"
  },
  {
    "slug": "nordic-valley",
    "name": "Nordic Valley",
    "state_province": "UT",
    "region": "Wasatch / Utah",
    "latitude": 41.31,
    "longitude": -111.8647,
    "elevation_summit_ft": 6400,
    "snow_24h": 0.0,
    "snow_48h": 0.0,
    "snow_7d": 0.5,
    "current_temp": 51.6,
    "conditions": "Overcast"
  },
  {
    "slug": "cherry-peak",
    "name": "Cherry Peak",
    "state_province": "UT",
    "region": "Wasatch / Utah",
    "latitude": 41.9244,
    "longitude": -111.74,
    "elevation_summit_ft": 7050,
    "snow_24h": 0.0,
    "snow_48h": 0.7,
    "snow_7d": 3.2,
    "current_temp": 46.1,
    "conditions": "Overcast"
  },
  {
    "slug": "eagle-point",
    "name": "Eagle Point",
    "state_province": "UT",
    "region": "Wasatch / Utah",
    "latitude": 38.3203,
    "longitude": -112.3836,
    "elevation_summit_ft": 10100,
    "snow_24h": 0.0,
    "snow_48h": 1.8,
    "snow_7d": 8.9,
    "current_temp": 47.1,
    "conditions": "Mainly Clear"
  },
  {
    "slug": "mammoth-mountain",
    "name": "Mammoth Mountain",
    "state_province": "CA",
    "region": "California / Sierra",
    "latitude": 37.6308,
    "longitude": -119.0326,
    "elevation_summit_ft": 11053,
    "snow_24h": 1.2,
    "snow_48h": 1.2,
    "snow_7d": 1.5,
    "current_temp": 35.9,
    "conditions": "Mainly Clear"
  },
  {
    "slug": "palisades-tahoe",
    "name": "Palisades Tahoe",
    "state_province": "CA",
    "region": "California / Sierra",
    "latitude": 39.1968,
    "longitude": -120.2354,
    "elevation_summit_ft": 9050,
    "snow_24h": 0.0,
    "snow_48h": 0.0,
    "snow_7d": 0.0,
    "current_temp": 50.3,
    "conditions": "Mainly Clear"
  },
  {
    "slug": "heavenly",
    "name": "Heavenly",
    "state_province": "CA",
    "region": "California / Sierra",
    "latitude": 38.9353,
    "longitude": -119.94,
    "elevation_summit_ft": 10067,
    "snow_24h": 0.1,
    "snow_48h": 0.1,
    "snow_7d": 0.2,
    "current_temp": 52.2,
    "conditions": "Overcast"
  },
  {
    "slug": "kirkwood",
    "name": "Kirkwood",
    "state_province": "CA",
    "region": "California / Sierra",
    "latitude": 38.685,
    "longitude": -120.0653,
    "elevation_summit_ft": 9800,
    "snow_24h": 0.6,
    "snow_48h": 0.6,
    "snow_7d": 1.6,
    "current_temp": 45.9,
    "conditions": "Overcast"
  },
  {
    "slug": "northstar",
    "name": "Northstar",
    "state_province": "CA",
    "region": "California / Sierra",
    "latitude": 39.2746,
    "longitude": -120.121,
    "elevation_summit_ft": 8610,
    "snow_24h": 0.0,
    "snow_48h": 0.0,
    "snow_7d": 0.0,
    "current_temp": 49.9,
    "conditions": "Overcast"
  },
  {
    "slug": "sugar-bowl",
    "name": "Sugar Bowl",
    "state_province": "CA",
    "region": "California / Sierra",
    "latitude": 39.3046,
    "longitude": -120.334,
    "elevation_summit_ft": 8383,
    "snow_24h": 0.1,
    "snow_48h": 0.1,
    "snow_7d": 1.1,
    "current_temp": 47.1,
    "conditions": "Overcast"
  },
  {
    "slug": "sierra-at-tahoe",
    "name": "Sierra-at-Tahoe",
    "state_province": "CA",
    "region": "California / Sierra",
    "latitude": 38.7989,
    "longitude": -120.08,
    "elevation_summit_ft": 8852,
    "snow_24h": 0.3,
    "snow_48h": 0.3,
    "snow_7d": 1.0,
    "current_temp": 48.4,
    "conditions": "Overcast"
  },
  {
    "slug": "bear-mountain",
    "name": "Bear Mountain",
    "state_province": "CA",
    "region": "California / Sierra",
    "latitude": 34.2275,
    "longitude": -116.86,
    "elevation_summit_ft": 8805,
    "snow_24h": 0.0,
    "snow_48h": 0.0,
    "snow_7d": 0.0,
    "current_temp": 60.1,
    "conditions": "Clear"
  },
  {
    "slug": "snow-summit",
    "name": "Snow Summit",
    "state_province": "CA",
    "region": "California / Sierra",
    "latitude": 34.2364,
    "longitude": -116.8906,
    "elevation_summit_ft": 8200,
    "snow_24h": 0.0,
    "snow_48h": 0.0,
    "snow_7d": 0.0,
    "current_temp": 59.1,
    "conditions": "Clear"
  },
  {
    "slug": "boreal-mountain",
    "name": "Boreal Mountain",
    "state_province": "CA",
    "region": "California / Sierra",
    "latitude": 39.3327,
    "longitude": -120.3494,
    "elevation_summit_ft": 7850,
    "snow_24h": 0.2,
    "snow_48h": 0.2,
    "snow_7d": 1.3,
    "current_temp": 46.1,
    "conditions": "Clear"
  },
  {
    "slug": "dodge-ridge",
    "name": "Dodge Ridge",
    "state_province": "CA",
    "region": "California / Sierra",
    "latitude": 38.19,
    "longitude": -119.9564,
    "elevation_summit_ft": 8200,
    "snow_24h": 0.0,
    "snow_48h": 0.0,
    "snow_7d": 0.2,
    "current_temp": 51.3,
    "conditions": "Overcast"
  },
  {
    "slug": "mt-rose",
    "name": "Mt. Rose",
    "state_province": "NV",
    "region": "California / Sierra",
    "latitude": 39.3149,
    "longitude": -119.8839,
    "elevation_summit_ft": 9700,
    "snow_24h": 1.1,
    "snow_48h": 1.1,
    "snow_7d": 1.7,
    "current_temp": 38.5,
    "conditions": "Mainly Clear"
  },
  {
    "slug": "diamond-peak",
    "name": "Diamond Peak",
    "state_province": "NV",
    "region": "California / Sierra",
    "latitude": 39.2536,
    "longitude": -119.9175,
    "elevation_summit_ft": 8540,
    "snow_24h": 0.2,
    "snow_48h": 0.2,
    "snow_7d": 0.3,
    "current_temp": 47.0,
    "conditions": "Overcast"
  },
  {
    "slug": "homewood",
    "name": "Homewood",
    "state_province": "CA",
    "region": "California / Sierra",
    "latitude": 39.0856,
    "longitude": -120.1606,
    "elevation_summit_ft": 7880,
    "snow_24h": 0.0,
    "snow_48h": 0.0,
    "snow_7d": 0.2,
    "current_temp": 48.6,
    "conditions": "Overcast"
  },
  {
    "slug": "china-peak",
    "name": "China Peak",
    "state_province": "CA",
    "region": "California / Sierra",
    "latitude": 37.2344,
    "longitude": -119.1575,
    "elevation_summit_ft": 8700,
    "snow_24h": 0.2,
    "snow_48h": 0.2,
    "snow_7d": 0.2,
    "current_temp": 52.3,
    "conditions": "Partly Cloudy"
  },
  {
    "slug": "mountain-high",
    "name": "Mountain High",
    "state_province": "CA",
    "region": "California / Sierra",
    "latitude": 34.3722,
    "longitude": -117.6911,
    "elevation_summit_ft": 8200,
    "snow_24h": 0.0,
    "snow_48h": 0.0,
    "snow_7d": 0.0,
    "current_temp": 58.3,
    "conditions": "Clear"
  },
  {
    "slug": "snow-valley",
    "name": "Snow Valley",
    "state_province": "CA",
    "region": "California / Sierra",
    "latitude": 34.2253,
    "longitude": -117.0367,
    "elevation_summit_ft": 7898,
    "snow_24h": 0.0,
    "snow_48h": 0.0,
    "snow_7d": 0.0,
    "current_temp": 56.8,
    "conditions": "Clear"
  },
  {
    "slug": "june-mountain",
    "name": "June Mountain",
    "state_province": "CA",
    "region": "California / Sierra",
    "latitude": 37.7675,
    "longitude": -119.0867,
    "elevation_summit_ft": 10135,
    "snow_24h": 0.1,
    "snow_48h": 0.1,
    "snow_7d": 0.2,
    "current_temp": 46.9,
    "conditions": "Overcast"
  },
  {
    "slug": "soda-springs",
    "name": "Soda Springs",
    "state_province": "CA",
    "region": "California / Sierra",
    "latitude": 39.3206,
    "longitude": -120.3772,
    "elevation_summit_ft": 7352,
    "snow_24h": 0.1,
    "snow_48h": 0.1,
    "snow_7d": 1.6,
    "current_temp": 48.5,
    "conditions": "Overcast"
  },
  {
    "slug": "crystal-mountain-wa",
    "name": "Crystal Mountain",
    "state_province": "WA",
    "region": "Pacific Northwest",
    "latitude": 46.935,
    "longitude": -121.5014,
    "elevation_summit_ft": 7012,
    "snow_24h": 0.0,
    "snow_48h": 0.0,
    "snow_7d": 9.4,
    "current_temp": 35.3,
    "conditions": "Overcast"
  },
  {
    "slug": "stevens-pass",
    "name": "Stevens Pass",
    "state_province": "WA",
    "region": "Pacific Northwest",
    "latitude": 47.7448,
    "longitude": -121.089,
    "elevation_summit_ft": 5845,
    "snow_24h": 0.0,
    "snow_48h": 0.0,
    "snow_7d": 4.1,
    "current_temp": 41.9,
    "conditions": "Clear"
  },
  {
    "slug": "mt-baker",
    "name": "Mt. Baker",
    "state_province": "WA",
    "region": "Pacific Northwest",
    "latitude": 48.8574,
    "longitude": -121.6647,
    "elevation_summit_ft": 5089,
    "snow_24h": 0.0,
    "snow_48h": 0.3,
    "snow_7d": 10.7,
    "current_temp": 38.0,
    "conditions": "Clear"
  },
  {
    "slug": "mt-hood-meadows",
    "name": "Mt. Hood Meadows",
    "state_province": "OR",
    "region": "Pacific Northwest",
    "latitude": 45.3311,
    "longitude": -121.6647,
    "elevation_summit_ft": 7300,
    "snow_24h": 0.0,
    "snow_48h": 0.1,
    "snow_7d": 9.7,
    "current_temp": 41.7,
    "conditions": "Overcast"
  },
  {
    "slug": "timberline",
    "name": "Timberline",
    "state_province": "OR",
    "region": "Pacific Northwest",
    "latitude": 45.3311,
    "longitude": -121.7111,
    "elevation_summit_ft": 8540,
    "snow_24h": 0.1,
    "snow_48h": 0.2,
    "snow_7d": 14.3,
    "current_temp": 40.3,
    "conditions": "Overcast"
  },
  {
    "slug": "mission-ridge",
    "name": "Mission Ridge",
    "state_province": "WA",
    "region": "Pacific Northwest",
    "latitude": 47.2917,
    "longitude": -120.3992,
    "elevation_summit_ft": 6820,
    "snow_24h": 0.0,
    "snow_48h": 0.0,
    "snow_7d": 0.3,
    "current_temp": 39.0,
    "conditions": "Clear"
  },
  {
    "slug": "snoqualmie-pass",
    "name": "Snoqualmie Pass",
    "state_province": "WA",
    "region": "Pacific Northwest",
    "latitude": 47.4206,
    "longitude": -121.4136,
    "elevation_summit_ft": 5400,
    "snow_24h": 0.0,
    "snow_48h": 0.0,
    "snow_7d": 1.3,
    "current_temp": 45.9,
    "conditions": "Clear"
  },
  {
    "slug": "mt-bachelor",
    "name": "Mt. Bachelor",
    "state_province": "OR",
    "region": "Pacific Northwest",
    "latitude": 43.9792,
    "longitude": -121.6886,
    "elevation_summit_ft": 9065,
    "snow_24h": 5.1,
    "snow_48h": 5.2,
    "snow_7d": 13.9,
    "current_temp": 31.0,
    "conditions": "Overcast"
  },
  {
    "slug": "white-pass",
    "name": "White Pass",
    "state_province": "WA",
    "region": "Pacific Northwest",
    "latitude": 46.6369,
    "longitude": -121.3903,
    "elevation_summit_ft": 6000,
    "snow_24h": 0.0,
    "snow_48h": 0.1,
    "snow_7d": 5.5,
    "current_temp": 44.9,
    "conditions": "Overcast"
  },
  {
    "slug": "mt-hood-skibowl",
    "name": "Mt. Hood Skibowl",
    "state_province": "OR",
    "region": "Pacific Northwest",
    "latitude": 45.3019,
    "longitude": -121.7728,
    "elevation_summit_ft": 5066,
    "snow_24h": 0.0,
    "snow_48h": 0.0,
    "snow_7d": 3.4,
    "current_temp": 46.7,
    "conditions": "Overcast"
  },
  {
    "slug": "schweitzer",
    "name": "Schweitzer",
    "state_province": "ID",
    "region": "Northern Rockies",
    "latitude": 48.3678,
    "longitude": -116.6225,
    "elevation_summit_ft": 6400,
    "snow_24h": 0.0,
    "snow_48h": 0.0,
    "snow_7d": 1.5,
    "current_temp": 36.4,
    "conditions": "Clear"
  },
  {
    "slug": "49-degrees-north",
    "name": "49 Degrees North",
    "state_province": "WA",
    "region": "Pacific Northwest",
    "latitude": 48.2992,
    "longitude": -117.5619,
    "elevation_summit_ft": 5774,
    "snow_24h": 0.0,
    "snow_48h": 0.0,
    "snow_7d": 0.1,
    "current_temp": 38.6,
    "conditions": "Clear"
  },
  {
    "slug": "mt-spokane",
    "name": "Mt. Spokane",
    "state_province": "WA",
    "region": "Pacific Northwest",
    "latitude": 47.9225,
    "longitude": -117.1031,
    "elevation_summit_ft": 5889,
    "snow_24h": 0.0,
    "snow_48h": 0.0,
    "snow_7d": 1.2,
    "current_temp": 35.7,
    "conditions": "Clear"
  },
  {
    "slug": "hoodoo",
    "name": "Hoodoo",
    "state_province": "OR",
    "region": "Pacific Northwest",
    "latitude": 44.4097,
    "longitude": -121.8694,
    "elevation_summit_ft": 5703,
    "snow_24h": 0.0,
    "snow_48h": 0.0,
    "snow_7d": 4.9,
    "current_temp": 45.3,
    "conditions": "Overcast"
  },
  {
    "slug": "mt-ashland",
    "name": "Mt. Ashland",
    "state_province": "OR",
    "region": "Pacific Northwest",
    "latitude": 42.0808,
    "longitude": -122.7361,
    "elevation_summit_ft": 7533,
    "snow_24h": 1.2,
    "snow_48h": 1.2,
    "snow_7d": 4.3,
    "current_temp": 43.3,
    "conditions": "Clear"
  },
  {
    "slug": "willamette-pass",
    "name": "Willamette Pass",
    "state_province": "OR",
    "region": "Pacific Northwest",
    "latitude": 43.5961,
    "longitude": -122.0428,
    "elevation_summit_ft": 6683,
    "snow_24h": 0.0,
    "snow_48h": 0.0,
    "snow_7d": 5.8,
    "current_temp": 43.0,
    "conditions": "Drizzle"
  },
  {
    "slug": "big-sky",
    "name": "Big Sky",
    "state_province": "MT",
    "region": "Northern Rockies",
    "latitude": 45.2836,
    "longitude": -111.4014,
    "elevation_summit_ft": 11166,
    "snow_24h": 0.2,
    "snow_48h": 0.2,
    "snow_7d": 4.0,
    "current_temp": 39.3,
    "conditions": "Clear"
  },
  {
    "slug": "jackson-hole",
    "name": "Jackson Hole",
    "state_province": "WY",
    "region": "Northern Rockies",
    "latitude": 43.5877,
    "longitude": -110.8279,
    "elevation_summit_ft": 10450,
    "snow_24h": 0.6,
    "snow_48h": 0.8,
    "snow_7d": 2.7,
    "current_temp": 38.0,
    "conditions": "Overcast"
  },
  {
    "slug": "bridger-bowl",
    "name": "Bridger Bowl",
    "state_province": "MT",
    "region": "Northern Rockies",
    "latitude": 45.8169,
    "longitude": -110.8975,
    "elevation_summit_ft": 8800,
    "snow_24h": 0.0,
    "snow_48h": 0.0,
    "snow_7d": 1.7,
    "current_temp": 46.2,
    "conditions": "Overcast"
  },
  {
    "slug": "whitefish-mountain",
    "name": "Whitefish Mountain",
    "state_province": "MT",
    "region": "Northern Rockies",
    "latitude": 48.4822,
    "longitude": -114.3509,
    "elevation_summit_ft": 6817,
    "snow_24h": 0.0,
    "snow_48h": 0.0,
    "snow_7d": 0.6,
    "current_temp": 38.8,
    "conditions": "Clear"
  },
  {
    "slug": "red-lodge-mountain",
    "name": "Red Lodge Mountain",
    "state_province": "MT",
    "region": "Northern Rockies",
    "latitude": 45.1861,
    "longitude": -109.3364,
    "elevation_summit_ft": 9416,
    "snow_24h": 0.1,
    "snow_48h": 0.1,
    "snow_7d": 4.1,
    "current_temp": 29.4,
    "conditions": "Clear"
  },
  {
    "slug": "grand-targhee",
    "name": "Grand Targhee",
    "state_province": "WY",
    "region": "Northern Rockies",
    "latitude": 43.7878,
    "longitude": -110.9578,
    "elevation_summit_ft": 10000,
    "snow_24h": 1.1,
    "snow_48h": 2.3,
    "snow_7d": 6.2,
    "current_temp": 34.9,
    "conditions": "Overcast"
  },
  {
    "slug": "sun-valley",
    "name": "Sun Valley",
    "state_province": "ID",
    "region": "Northern Rockies",
    "latitude": 43.6975,
    "longitude": -114.3514,
    "elevation_summit_ft": 9150,
    "snow_24h": 0.0,
    "snow_48h": 0.0,
    "snow_7d": 0.2,
    "current_temp": 42.9,
    "conditions": "Overcast"
  },
  {
    "slug": "brundage-mountain",
    "name": "Brundage Mountain",
    "state_province": "ID",
    "region": "Northern Rockies",
    "latitude": 44.9497,
    "longitude": -116.1533,
    "elevation_summit_ft": 7640,
    "snow_24h": 0.0,
    "snow_48h": 0.0,
    "snow_7d": 1.2,
    "current_temp": 42.1,
    "conditions": "Overcast"
  },
  {
    "slug": "bogus-basin",
    "name": "Bogus Basin",
    "state_province": "ID",
    "region": "Northern Rockies",
    "latitude": 43.7642,
    "longitude": -116.1025,
    "elevation_summit_ft": 7582,
    "snow_24h": 0.0,
    "snow_48h": 0.0,
    "snow_7d": 2.2,
    "current_temp": 42.3,
    "conditions": "Overcast"
  },
  {
    "slug": "lookout-pass",
    "name": "Lookout Pass",
    "state_province": "ID",
    "region": "Northern Rockies",
    "latitude": 47.4558,
    "longitude": -115.6953,
    "elevation_summit_ft": 5650,
    "snow_24h": 0.0,
    "snow_48h": 0.0,
    "snow_7d": 3.1,
    "current_temp": 38.2,
    "conditions": "Clear"
  },
  {
    "slug": "silver-mountain",
    "name": "Silver Mountain",
    "state_province": "ID",
    "region": "Northern Rockies",
    "latitude": 47.5364,
    "longitude": -116.1192,
    "elevation_summit_ft": 6300,
    "snow_24h": 0.0,
    "snow_48h": 0.0,
    "snow_7d": 0.0,
    "current_temp": 48.7,
    "conditions": "Clear"
  },
  {
    "slug": "tamarack",
    "name": "Tamarack",
    "state_province": "ID",
    "region": "Northern Rockies",
    "latitude": 44.6822,
    "longitude": -116.1108,
    "elevation_summit_ft": 7700,
    "snow_24h": 0.0,
    "snow_48h": 0.0,
    "snow_7d": 0.2,
    "current_temp": 43.9,
    "conditions": "Overcast"
  },
  {
    "slug": "snow-king-mountain",
    "name": "Snow King Mountain",
    "state_province": "WY",
    "region": "Northern Rockies",
    "latitude": 43.4792,
    "longitude": -110.7608,
    "elevation_summit_ft": 7808,
    "snow_24h": 0.0,
    "snow_48h": 0.0,
    "snow_7d": 0.9,
    "current_temp": 42.3,
    "conditions": "Overcast"
  },
  {
    "slug": "lost-trail",
    "name": "Lost Trail",
    "state_province": "MT",
    "region": "Northern Rockies",
    "latitude": 45.6922,
    "longitude": -113.9486,
    "elevation_summit_ft": 8200,
    "snow_24h": 0.3,
    "snow_48h": 0.3,
    "snow_7d": 4.3,
    "current_temp": 37.3,
    "conditions": "Overcast"
  },
  {
    "slug": "discovery",
    "name": "Discovery",
    "state_province": "MT",
    "region": "Northern Rockies",
    "latitude": 46.2461,
    "longitude": -113.2294,
    "elevation_summit_ft": 8158,
    "snow_24h": 0.0,
    "snow_48h": 0.0,
    "snow_7d": 1.9,
    "current_temp": 36.0,
    "conditions": "Clear"
  },
  {
    "slug": "montana-snowbowl",
    "name": "Montana Snowbowl",
    "state_province": "MT",
    "region": "Northern Rockies",
    "latitude": 47.015,
    "longitude": -114.1714,
    "elevation_summit_ft": 7600,
    "snow_24h": 0.0,
    "snow_48h": 0.0,
    "snow_7d": 0.5,
    "current_temp": 47.5,
    "conditions": "Clear"
  },
  {
    "slug": "showdown-montana",
    "name": "Showdown Montana",
    "state_province": "MT",
    "region": "Northern Rockies",
    "latitude": 46.8403,
    "longitude": -110.7189,
    "elevation_summit_ft": 8200,
    "snow_24h": 0.0,
    "snow_48h": 0.0,
    "snow_7d": 3.4,
    "current_temp": 31.2,
    "conditions": "Clear"
  },
  {
    "slug": "killington",
    "name": "Killington",
    "state_province": "VT",
    "region": "Northeast / New England",
    "latitude": 43.6045,
    "longitude": -72.8201,
    "elevation_summit_ft": 4241,
    "snow_24h": 0.0,
    "snow_48h": 0.0,
    "snow_7d": 13.6,
    "current_temp": 29.9,
    "conditions": "Clear"
  },
  {
    "slug": "stowe",
    "name": "Stowe",
    "state_province": "VT",
    "region": "Northeast / New England",
    "latitude": 44.5303,
    "longitude": -72.7814,
    "elevation_summit_ft": 4395,
    "snow_24h": 0.0,
    "snow_48h": 0.0,
    "snow_7d": 3.4,
    "current_temp": 37.1,
    "conditions": "Clear"
  },
  {
    "slug": "sugarbush",
    "name": "Sugarbush",
    "state_province": "VT",
    "region": "Northeast / New England",
    "latitude": 44.1358,
    "longitude": -72.9039,
    "elevation_summit_ft": 4083,
    "snow_24h": 0.0,
    "snow_48h": 0.0,
    "snow_7d": 5.1,
    "current_temp": 36.4,
    "conditions": "Clear"
  },
  {
    "slug": "jay-peak",
    "name": "Jay Peak",
    "state_province": "VT",
    "region": "Northeast / New England",
    "latitude": 44.9272,
    "longitude": -72.5286,
    "elevation_summit_ft": 3968,
    "snow_24h": 0.0,
    "snow_48h": 0.0,
    "snow_7d": 4.2,
    "current_temp": 26.9,
    "conditions": "Clear"
  },
  {
    "slug": "sunday-river",
    "name": "Sunday River",
    "state_province": "ME",
    "region": "Northeast / New England",
    "latitude": 44.4731,
    "longitude": -70.8567,
    "elevation_summit_ft": 3140,
    "snow_24h": 0.0,
    "snow_48h": 0.0,
    "snow_7d": 5.1,
    "current_temp": 35.4,
    "conditions": "Clear"
  },
  {
    "slug": "sugarloaf",
    "name": "Sugarloaf",
    "state_province": "ME",
    "region": "Northeast / New England",
    "latitude": 45.0314,
    "longitude": -70.3131,
    "elevation_summit_ft": 4237,
    "snow_24h": 0.0,
    "snow_48h": 0.0,
    "snow_7d": 6.0,
    "current_temp": 27.1,
    "conditions": "Clear"
  },
  {
    "slug": "bretton-woods",
    "name": "Bretton Woods",
    "state_province": "NH",
    "region": "Northeast / New England",
    "latitude": 44.2572,
    "longitude": -71.4639,
    "elevation_summit_ft": 3100,
    "snow_24h": 0.0,
    "snow_48h": 0.0,
    "snow_7d": 5.2,
    "current_temp": 36.3,
    "conditions": "Clear"
  },
  {
    "slug": "loon-mountain",
    "name": "Loon Mountain",
    "state_province": "NH",
    "region": "Northeast / New England",
    "latitude": 44.0364,
    "longitude": -71.6214,
    "elevation_summit_ft": 3050,
    "snow_24h": 0.0,
    "snow_48h": 0.0,
    "snow_7d": 9.4,
    "current_temp": 31.1,
    "conditions": "Clear"
  },
  {
    "slug": "cannon-mountain",
    "name": "Cannon Mountain",
    "state_province": "NH",
    "region": "Northeast / New England",
    "latitude": 44.1567,
    "longitude": -71.6986,
    "elevation_summit_ft": 4100,
    "snow_24h": 0.0,
    "snow_48h": 0.0,
    "snow_7d": 9.7,
    "current_temp": 27.9,
    "conditions": "Clear"
  },
  {
    "slug": "stratton",
    "name": "Stratton",
    "state_province": "VT",
    "region": "Northeast / New England",
    "latitude": 43.1133,
    "longitude": -72.9081,
    "elevation_summit_ft": 3875,
    "snow_24h": 0.0,
    "snow_48h": 0.0,
    "snow_7d": 8.0,
    "current_temp": 36.7,
    "conditions": "Clear"
  },
  {
    "slug": "okemo",
    "name": "Okemo",
    "state_province": "VT",
    "region": "Northeast / New England",
    "latitude": 43.4019,
    "longitude": -72.7167,
    "elevation_summit_ft": 3344,
    "snow_24h": 0.0,
    "snow_48h": 0.0,
    "snow_7d": 4.7,
    "current_temp": 39.1,
    "conditions": "Clear"
  },
  {
    "slug": "mount-snow",
    "name": "Mount Snow",
    "state_province": "VT",
    "region": "Northeast / New England",
    "latitude": 42.9603,
    "longitude": -72.9206,
    "elevation_summit_ft": 3600,
    "snow_24h": 0.0,
    "snow_48h": 0.0,
    "snow_7d": 13.6,
    "current_temp": 31.4,
    "conditions": "Clear"
  },
  {
    "slug": "smugglers-notch",
    "name": "Smugglers Notch",
    "state_province": "VT",
    "region": "Northeast / New England",
    "latitude": 44.5875,
    "longitude": -72.7917,
    "elevation_summit_ft": 3640,
    "snow_24h": 0.0,
    "snow_48h": 0.0,
    "snow_7d": 2.0,
    "current_temp": 37.8,
    "conditions": "Clear"
  },
  {
    "slug": "attitash",
    "name": "Attitash",
    "state_province": "NH",
    "region": "Northeast / New England",
    "latitude": 44.0831,
    "longitude": -71.23,
    "elevation_summit_ft": 2350,
    "snow_24h": 0.0,
    "snow_48h": 0.0,
    "snow_7d": 4.9,
    "current_temp": 37.4,
    "conditions": "Clear"
  },
  {
    "slug": "wildcat-mountain",
    "name": "Wildcat Mountain",
    "state_province": "NH",
    "region": "Northeast / New England",
    "latitude": 44.2636,
    "longitude": -71.2392,
    "elevation_summit_ft": 4062,
    "snow_24h": 0.0,
    "snow_48h": 0.0,
    "snow_7d": 6.0,
    "current_temp": 35.2,
    "conditions": "Clear"
  },
  {
    "slug": "mad-river-glen",
    "name": "Mad River Glen",
    "state_province": "VT",
    "region": "Northeast / New England",
    "latitude": 44.2033,
    "longitude": -72.9175,
    "elevation_summit_ft": 3637,
    "snow_24h": 0.0,
    "snow_48h": 0.0,
    "snow_7d": 4.5,
    "current_temp": 36.5,
    "conditions": "Clear"
  },
  {
    "slug": "bolton-valley",
    "name": "Bolton Valley",
    "state_province": "VT",
    "region": "Northeast / New England",
    "latitude": 44.4186,
    "longitude": -72.85,
    "elevation_summit_ft": 3150,
    "snow_24h": 0.0,
    "snow_48h": 0.0,
    "snow_7d": 4.4,
    "current_temp": 34.7,
    "conditions": "Clear"
  },
  {
    "slug": "pico-mountain",
    "name": "Pico Mountain",
    "state_province": "VT",
    "region": "Northeast / New England",
    "latitude": 43.6628,
    "longitude": -72.8436,
    "elevation_summit_ft": 3967,
    "snow_24h": 0.0,
    "snow_48h": 0.0,
    "snow_7d": 6.4,
    "current_temp": 37.5,
    "conditions": "Clear"
  },
  {
    "slug": "bromley",
    "name": "Bromley",
    "state_province": "VT",
    "region": "Northeast / New England",
    "latitude": 43.2225,
    "longitude": -72.9369,
    "elevation_summit_ft": 3284,
    "snow_24h": 0.0,
    "snow_48h": 0.0,
    "snow_7d": 10.9,
    "current_temp": 33.5,
    "conditions": "Clear"
  },
  {
    "slug": "burke-mountain",
    "name": "Burke Mountain",
    "state_province": "VT",
    "region": "Northeast / New England",
    "latitude": 44.5822,
    "longitude": -71.9078,
    "elevation_summit_ft": 3267,
    "snow_24h": 0.0,
    "snow_48h": 0.0,
    "snow_7d": 4.1,
    "current_temp": 37.1,
    "conditions": "Clear"
  },
  {
    "slug": "magic-mountain",
    "name": "Magic Mountain",
    "state_province": "VT",
    "region": "Northeast / New England",
    "latitude": 43.2078,
    "longitude": -72.7797,
    "elevation_summit_ft": 2850,
    "snow_24h": 0.0,
    "snow_48h": 0.0,
    "snow_7d": 5.0,
    "current_temp": 37.6,
    "conditions": "Clear"
  },
  {
    "slug": "waterville-valley",
    "name": "Waterville Valley",
    "state_province": "NH",
    "region": "Northeast / New England",
    "latitude": 43.9661,
    "longitude": -71.5286,
    "elevation_summit_ft": 4004,
    "snow_24h": 0.0,
    "snow_48h": 0.0,
    "snow_7d": 7.0,
    "current_temp": 35.0,
    "conditions": "Overcast"
  },
  {
    "slug": "cranmore-mountain",
    "name": "Cranmore Mountain",
    "state_province": "NH",
    "region": "Northeast / New England",
    "latitude": 44.0558,
    "longitude": -71.1117,
    "elevation_summit_ft": 2000,
    "snow_24h": 0.0,
    "snow_48h": 0.0,
    "snow_7d": 5.2,
    "current_temp": 35.6,
    "conditions": "Clear"
  },
  {
    "slug": "gunstock-mountain",
    "name": "Gunstock Mountain",
    "state_province": "NH",
    "region": "Northeast / New England",
    "latitude": 43.5397,
    "longitude": -71.3647,
    "elevation_summit_ft": 2250,
    "snow_24h": 0.0,
    "snow_48h": 0.0,
    "snow_7d": 8.3,
    "current_temp": 39.1,
    "conditions": "Clear"
  },
  {
    "slug": "ragged-mountain",
    "name": "Ragged Mountain",
    "state_province": "NH",
    "region": "Northeast / New England",
    "latitude": 43.5031,
    "longitude": -71.8442,
    "elevation_summit_ft": 2220,
    "snow_24h": 0.0,
    "snow_48h": 0.0,
    "snow_7d": 6.5,
    "current_temp": 36.7,
    "conditions": "Clear"
  },
  {
    "slug": "saddleback-maine",
    "name": "Saddleback Maine",
    "state_province": "ME",
    "region": "Northeast / New England",
    "latitude": 44.9383,
    "longitude": -70.5128,
    "elevation_summit_ft": 4120,
    "snow_24h": 0.0,
    "snow_48h": 0.0,
    "snow_7d": 5.3,
    "current_temp": 30.5,
    "conditions": "Clear"
  },
  {
    "slug": "shawnee-peak",
    "name": "Shawnee Peak",
    "state_province": "ME",
    "region": "Northeast / New England",
    "latitude": 44.0644,
    "longitude": -70.8406,
    "elevation_summit_ft": 1900,
    "snow_24h": 0.0,
    "snow_48h": 0.0,
    "snow_7d": 5.5,
    "current_temp": 36.9,
    "conditions": "Clear"
  },
  {
    "slug": "wachusett-mountain",
    "name": "Wachusett Mountain",
    "state_province": "MA",
    "region": "Northeast / New England",
    "latitude": 42.5028,
    "longitude": -71.8856,
    "elevation_summit_ft": 2006,
    "snow_24h": 0.0,
    "snow_48h": 0.0,
    "snow_7d": 4.8,
    "current_temp": 37.6,
    "conditions": "Clear"
  },
  {
    "slug": "mount-sunapee",
    "name": "Mount Sunapee",
    "state_province": "NH",
    "region": "Northeast / New England",
    "latitude": 43.3311,
    "longitude": -72.0831,
    "elevation_summit_ft": 2743,
    "snow_24h": 0.0,
    "snow_48h": 0.0,
    "snow_7d": 6.5,
    "current_temp": 37.2,
    "conditions": "Clear"
  },
  {
    "slug": "berkshire-east",
    "name": "Berkshire East",
    "state_province": "MA",
    "region": "Northeast / New England",
    "latitude": 42.6283,
    "longitude": -72.8933,
    "elevation_summit_ft": 1740,
    "snow_24h": 0.0,
    "snow_48h": 0.0,
    "snow_7d": 1.5,
    "current_temp": 38.1,
    "conditions": "Clear"
  },
  {
    "slug": "jiminy-peak",
    "name": "Jiminy Peak",
    "state_province": "MA",
    "region": "Northeast / New England",
    "latitude": 42.5592,
    "longitude": -73.2833,
    "elevation_summit_ft": 2380,
    "snow_24h": 0.0,
    "snow_48h": 0.1,
    "snow_7d": 4.1,
    "current_temp": 35.8,
    "conditions": "Clear"
  },
  {
    "slug": "whiteface",
    "name": "Whiteface",
    "state_province": "NY",
    "region": "Northeast / New England",
    "latitude": 44.3658,
    "longitude": -73.9028,
    "elevation_summit_ft": 4867,
    "snow_24h": 0.0,
    "snow_48h": 0.0,
    "snow_7d": 6.6,
    "current_temp": 18.8,
    "conditions": "Clear"
  },
  {
    "slug": "gore-mountain",
    "name": "Gore Mountain",
    "state_province": "NY",
    "region": "Northeast / New England",
    "latitude": 43.6769,
    "longitude": -74.0078,
    "elevation_summit_ft": 3600,
    "snow_24h": 0.0,
    "snow_48h": 0.0,
    "snow_7d": 3.5,
    "current_temp": 34.6,
    "conditions": "Clear"
  },
  {
    "slug": "hunter-mountain",
    "name": "Hunter Mountain",
    "state_province": "NY",
    "region": "Northeast / New England",
    "latitude": 42.2017,
    "longitude": -74.2256,
    "elevation_summit_ft": 3200,
    "snow_24h": 0.0,
    "snow_48h": 0.1,
    "snow_7d": 2.5,
    "current_temp": 35.4,
    "conditions": "Clear"
  },
  {
    "slug": "windham-mountain",
    "name": "Windham Mountain",
    "state_province": "NY",
    "region": "Northeast / New England",
    "latitude": 42.2989,
    "longitude": -74.2606,
    "elevation_summit_ft": 3100,
    "snow_24h": 0.0,
    "snow_48h": 0.0,
    "snow_7d": 0.8,
    "current_temp": 36.6,
    "conditions": "Clear"
  },
  {
    "slug": "camelback",
    "name": "Camelback",
    "state_province": "PA",
    "region": "Northeast / New England",
    "latitude": 41.0522,
    "longitude": -75.3579,
    "elevation_summit_ft": 2133,
    "snow_24h": 0.0,
    "snow_48h": 0.7,
    "snow_7d": 2.2,
    "current_temp": 41.4,
    "conditions": "Clear"
  },
  {
    "slug": "jack-frost",
    "name": "Jack Frost",
    "state_province": "PA",
    "region": "Northeast / New England",
    "latitude": 41.0497,
    "longitude": -75.4686,
    "elevation_summit_ft": 2000,
    "snow_24h": 0.0,
    "snow_48h": 0.8,
    "snow_7d": 3.1,
    "current_temp": 41.8,
    "conditions": "Clear"
  },
  {
    "slug": "seven-springs",
    "name": "Seven Springs",
    "state_province": "PA",
    "region": "Northeast / New England",
    "latitude": 40.0231,
    "longitude": -79.2969,
    "elevation_summit_ft": 2994,
    "snow_24h": 0.0,
    "snow_48h": 1.4,
    "snow_7d": 1.4,
    "current_temp": 44.4,
    "conditions": "Clear"
  },
  {
    "slug": "holiday-valley",
    "name": "Holiday Valley",
    "state_province": "NY",
    "region": "Northeast / New England",
    "latitude": 42.2653,
    "longitude": -78.6742,
    "elevation_summit_ft": 2280,
    "snow_24h": 0.0,
    "snow_48h": 0.2,
    "snow_7d": 0.3,
    "current_temp": 29.6,
    "conditions": "Clear"
  },
  {
    "slug": "snowshoe",
    "name": "Snowshoe",
    "state_province": "WV",
    "region": "Northeast / New England",
    "latitude": 38.4117,
    "longitude": -79.9942,
    "elevation_summit_ft": 4848,
    "snow_24h": 0.1,
    "snow_48h": 5.3,
    "snow_7d": 5.3,
    "current_temp": 38.6,
    "conditions": "Clear"
  },
  {
    "slug": "wintergreen",
    "name": "Wintergreen",
    "state_province": "VA",
    "region": "Northeast / New England",
    "latitude": 37.9286,
    "longitude": -78.9431,
    "elevation_summit_ft": 3515,
    "snow_24h": 0.0,
    "snow_48h": 2.3,
    "snow_7d": 2.3,
    "current_temp": 48.1,
    "conditions": "Clear"
  },
  {
    "slug": "massanutten",
    "name": "Massanutten",
    "state_province": "VA",
    "region": "Northeast / New England",
    "latitude": 38.4044,
    "longitude": -78.7481,
    "elevation_summit_ft": 2920,
    "snow_24h": 0.1,
    "snow_48h": 1.7,
    "snow_7d": 1.7,
    "current_temp": 54.2,
    "conditions": "Clear"
  },
  {
    "slug": "wisp",
    "name": "Wisp",
    "state_province": "MD",
    "region": "Northeast / New England",
    "latitude": 39.56,
    "longitude": -79.3658,
    "elevation_summit_ft": 3115,
    "snow_24h": 0.2,
    "snow_48h": 1.9,
    "snow_7d": 1.9,
    "current_temp": 45.8,
    "conditions": "Clear"
  },
  {
    "slug": "canaan-valley",
    "name": "Canaan Valley",
    "state_province": "WV",
    "region": "Northeast / New England",
    "latitude": 38.9842,
    "longitude": -79.4478,
    "elevation_summit_ft": 4280,
    "snow_24h": 0.1,
    "snow_48h": 0.6,
    "snow_7d": 0.6,
    "current_temp": 45.9,
    "conditions": "Clear"
  },
  {
    "slug": "timberline-mountain-wv",
    "name": "Timberline Mountain",
    "state_province": "WV",
    "region": "Northeast / New England",
    "latitude": 39.0003,
    "longitude": -79.395,
    "elevation_summit_ft": 4268,
    "snow_24h": 0.4,
    "snow_48h": 3.1,
    "snow_7d": 3.1,
    "current_temp": 40.7,
    "conditions": "Clear"
  },
  {
    "slug": "elk-mountain",
    "name": "Elk Mountain",
    "state_province": "PA",
    "region": "Northeast / New England",
    "latitude": 41.6872,
    "longitude": -75.5628,
    "elevation_summit_ft": 2700,
    "snow_24h": 0.0,
    "snow_48h": 0.3,
    "snow_7d": 1.1,
    "current_temp": 41.1,
    "conditions": "Clear"
  },
  {
    "slug": "blue-mountain-pa",
    "name": "Blue Mountain",
    "state_province": "PA",
    "region": "Northeast / New England",
    "latitude": 40.8325,
    "longitude": -75.5158,
    "elevation_summit_ft": 1610,
    "snow_24h": 0.0,
    "snow_48h": 0.6,
    "snow_7d": 1.4,
    "current_temp": 44.1,
    "conditions": "Clear"
  },
  {
    "slug": "greek-peak",
    "name": "Greek Peak",
    "state_province": "NY",
    "region": "Northeast / New England",
    "latitude": 42.5081,
    "longitude": -76.1486,
    "elevation_summit_ft": 2100,
    "snow_24h": 0.0,
    "snow_48h": 0.1,
    "snow_7d": 1.8,
    "current_temp": 31.1,
    "conditions": "Clear"
  },
  {
    "slug": "bristol-mountain",
    "name": "Bristol Mountain",
    "state_province": "NY",
    "region": "Northeast / New England",
    "latitude": 42.7403,
    "longitude": -77.4069,
    "elevation_summit_ft": 2200,
    "snow_24h": 0.1,
    "snow_48h": 0.1,
    "snow_7d": 0.1,
    "current_temp": 29.3,
    "conditions": "Clear"
  },
  {
    "slug": "belleayre-mountain",
    "name": "Belleayre Mountain",
    "state_province": "NY",
    "region": "Northeast / New England",
    "latitude": 42.135,
    "longitude": -74.5081,
    "elevation_summit_ft": 3429,
    "snow_24h": 0.0,
    "snow_48h": 0.1,
    "snow_7d": 1.6,
    "current_temp": 35.4,
    "conditions": "Clear"
  },
  {
    "slug": "plattekill-mountain",
    "name": "Plattekill Mountain",
    "state_province": "NY",
    "region": "Northeast / New England",
    "latitude": 42.2736,
    "longitude": -74.6508,
    "elevation_summit_ft": 3500,
    "snow_24h": 0.0,
    "snow_48h": 0.1,
    "snow_7d": 3.3,
    "current_temp": 30.7,
    "conditions": "Clear"
  },
  {
    "slug": "appalachian-ski-mountain",
    "name": "Appalachian Ski Mountain",
    "state_province": "NC",
    "region": "Northeast / New England",
    "latitude": 36.0944,
    "longitude": -81.6225,
    "elevation_summit_ft": 4180,
    "snow_24h": 0.0,
    "snow_48h": 0.1,
    "snow_7d": 0.1,
    "current_temp": 52.9,
    "conditions": "Clear"
  },
  {
    "slug": "sugar-mountain",
    "name": "Sugar Mountain",
    "state_province": "NC",
    "region": "Northeast / New England",
    "latitude": 36.1189,
    "longitude": -81.865,
    "elevation_summit_ft": 5300,
    "snow_24h": 0.1,
    "snow_48h": 0.7,
    "snow_7d": 0.7,
    "current_temp": 44.5,
    "conditions": "Clear"
  },
  {
    "slug": "beech-mountain",
    "name": "Beech Mountain",
    "state_province": "NC",
    "region": "Northeast / New England",
    "latitude": 36.1728,
    "longitude": -81.8683,
    "elevation_summit_ft": 5506,
    "snow_24h": 0.0,
    "snow_48h": 0.1,
    "snow_7d": 0.1,
    "current_temp": 46.0,
    "conditions": "Clear"
  },
  {
    "slug": "cataloochee",
    "name": "Cataloochee",
    "state_province": "NC",
    "region": "Northeast / New England",
    "latitude": 35.57,
    "longitude": -83.0917,
    "elevation_summit_ft": 5400,
    "snow_24h": 0.0,
    "snow_48h": 0.0,
    "snow_7d": 0.0,
    "current_temp": 46.2,
    "conditions": "Clear"
  },
  {
    "slug": "liberty-mountain",
    "name": "Liberty Mountain",
    "state_province": "PA",
    "region": "Northeast / New England",
    "latitude": 39.7631,
    "longitude": -77.3747,
    "elevation_summit_ft": 1550,
    "snow_24h": 0.0,
    "snow_48h": 0.8,
    "snow_7d": 0.8,
    "current_temp": 51.8,
    "conditions": "Clear"
  },
  {
    "slug": "roundtop",
    "name": "Roundtop",
    "state_province": "PA",
    "region": "Northeast / New England",
    "latitude": 40.11,
    "longitude": -76.7361,
    "elevation_summit_ft": 1400,
    "snow_24h": 0.0,
    "snow_48h": 0.7,
    "snow_7d": 0.7,
    "current_temp": 50.4,
    "conditions": "Clear"
  },
  {
    "slug": "whitetail",
    "name": "Whitetail",
    "state_province": "PA",
    "region": "Northeast / New England",
    "latitude": 39.7406,
    "longitude": -77.9317,
    "elevation_summit_ft": 1800,
    "snow_24h": 0.0,
    "snow_48h": 1.3,
    "snow_7d": 1.3,
    "current_temp": 54.4,
    "conditions": "Clear"
  },
  {
    "slug": "mountain-creek",
    "name": "Mountain Creek",
    "state_province": "NJ",
    "region": "Northeast / New England",
    "latitude": 41.1975,
    "longitude": -74.5097,
    "elevation_summit_ft": 1480,
    "snow_24h": 0.0,
    "snow_48h": 0.2,
    "snow_7d": 0.4,
    "current_temp": 42.6,
    "conditions": "Clear"
  },
  {
    "slug": "tuckerman-ravine",
    "name": "Tuckerman Ravine",
    "state_province": "NH",
    "region": "Northeast / New England",
    "latitude": 44.2606,
    "longitude": -71.2975,
    "elevation_summit_ft": 6288,
    "snow_24h": 0.0,
    "snow_48h": 0.0,
    "snow_7d": 10.6,
    "current_temp": 26.1,
    "conditions": "Clear"
  },
  {
    "slug": "taos-ski-valley",
    "name": "Taos Ski Valley",
    "state_province": "NM",
    "region": "Southwest",
    "latitude": 36.5964,
    "longitude": -105.4542,
    "elevation_summit_ft": 12481,
    "snow_24h": 0.0,
    "snow_48h": 0.0,
    "snow_7d": 0.1,
    "current_temp": 51.7,
    "conditions": "Clear"
  },
  {
    "slug": "ski-santa-fe",
    "name": "Ski Santa Fe",
    "state_province": "NM",
    "region": "Southwest",
    "latitude": 35.7956,
    "longitude": -105.7939,
    "elevation_summit_ft": 12075,
    "snow_24h": 0.0,
    "snow_48h": 0.0,
    "snow_7d": 0.0,
    "current_temp": 44.9,
    "conditions": "Overcast"
  },
  {
    "slug": "angel-fire",
    "name": "Angel Fire",
    "state_province": "NM",
    "region": "Southwest",
    "latitude": 36.3933,
    "longitude": -105.2836,
    "elevation_summit_ft": 10677,
    "snow_24h": 0.0,
    "snow_48h": 0.0,
    "snow_7d": 0.2,
    "current_temp": 54.2,
    "conditions": "Overcast"
  },
  {
    "slug": "sipapu",
    "name": "Sipapu Ski Resort",
    "state_province": "NM",
    "region": "Southwest",
    "latitude": 36.0917,
    "longitude": -105.5522,
    "elevation_summit_ft": 9255,
    "snow_24h": 0.0,
    "snow_48h": 0.0,
    "snow_7d": 0.0,
    "current_temp": 45.0,
    "conditions": "Overcast"
  },
  {
    "slug": "ski-apache",
    "name": "Ski Apache",
    "state_province": "NM",
    "region": "Southwest",
    "latitude": 33.3939,
    "longitude": -105.7908,
    "elevation_summit_ft": 11500,
    "snow_24h": 0.0,
    "snow_48h": 0.0,
    "snow_7d": 0.0,
    "current_temp": 52.8,
    "conditions": "Overcast"
  },
  {
    "slug": "arizona-snowbowl",
    "name": "Arizona Snowbowl",
    "state_province": "AZ",
    "region": "Southwest",
    "latitude": 35.3306,
    "longitude": -111.7072,
    "elevation_summit_ft": 11500,
    "snow_24h": 0.0,
    "snow_48h": 0.0,
    "snow_7d": 0.2,
    "current_temp": 54.8,
    "conditions": "Clear"
  },
  {
    "slug": "sunrise-park-resort",
    "name": "Sunrise Park Resort",
    "state_province": "AZ",
    "region": "Southwest",
    "latitude": 33.9711,
    "longitude": -109.5708,
    "elevation_summit_ft": 10700,
    "snow_24h": 0.0,
    "snow_48h": 0.0,
    "snow_7d": 0.0,
    "current_temp": 58.0,
    "conditions": "Clear"
  },
  {
    "slug": "lee-canyon",
    "name": "Lee Canyon",
    "state_province": "NV",
    "region": "Southwest",
    "latitude": 36.2972,
    "longitude": -115.68,
    "elevation_summit_ft": 9370,
    "snow_24h": 0.0,
    "snow_48h": 0.0,
    "snow_7d": 0.0,
    "current_temp": 51.3,
    "conditions": "Clear"
  },
  {
    "slug": "lutsen-mountains",
    "name": "Lutsen Mountains",
    "state_province": "MN",
    "region": "Midwest",
    "latitude": 47.6614,
    "longitude": -90.7003,
    "elevation_summit_ft": 1688,
    "snow_24h": 0.0,
    "snow_48h": 0.0,
    "snow_7d": 1.4,
    "current_temp": 4.6,
    "conditions": "Clear"
  },
  {
    "slug": "spirit-mountain",
    "name": "Spirit Mountain",
    "state_province": "MN",
    "region": "Midwest",
    "latitude": 46.7192,
    "longitude": -92.2158,
    "elevation_summit_ft": 1270,
    "snow_24h": 0.0,
    "snow_48h": 0.0,
    "snow_7d": 1.0,
    "current_temp": 10.8,
    "conditions": "Clear"
  },
  {
    "slug": "giants-ridge",
    "name": "Giants Ridge",
    "state_province": "MN",
    "region": "Midwest",
    "latitude": 47.5808,
    "longitude": -92.3539,
    "elevation_summit_ft": 1924,
    "snow_24h": 0.0,
    "snow_48h": 0.0,
    "snow_7d": 1.0,
    "current_temp": 5.8,
    "conditions": "Overcast"
  },
  {
    "slug": "granite-peak",
    "name": "Granite Peak",
    "state_province": "WI",
    "region": "Midwest",
    "latitude": 44.9528,
    "longitude": -89.6825,
    "elevation_summit_ft": 1920,
    "snow_24h": 0.0,
    "snow_48h": 0.0,
    "snow_7d": 0.1,
    "current_temp": 20.3,
    "conditions": "Overcast"
  },
  {
    "slug": "devils-head",
    "name": "Devil's Head",
    "state_province": "WI",
    "region": "Midwest",
    "latitude": 43.3922,
    "longitude": -89.7525,
    "elevation_summit_ft": 1420,
    "snow_24h": 0.0,
    "snow_48h": 0.2,
    "snow_7d": 0.6,
    "current_temp": 19.8,
    "conditions": "Clear"
  },
  {
    "slug": "cascade-mountain",
    "name": "Cascade Mountain",
    "state_province": "WI",
    "region": "Midwest",
    "latitude": 43.6375,
    "longitude": -89.5689,
    "elevation_summit_ft": 1260,
    "snow_24h": 0.0,
    "snow_48h": 0.2,
    "snow_7d": 0.7,
    "current_temp": 21.1,
    "conditions": "Clear"
  },
  {
    "slug": "boyne-mountain",
    "name": "Boyne Mountain",
    "state_province": "MI",
    "region": "Midwest",
    "latitude": 44.8194,
    "longitude": -84.9306,
    "elevation_summit_ft": 1280,
    "snow_24h": 0.0,
    "snow_48h": 0.0,
    "snow_7d": 0.4,
    "current_temp": 14.0,
    "conditions": "Overcast"
  },
  {
    "slug": "boyne-highlands",
    "name": "Boyne Highlands",
    "state_province": "MI",
    "region": "Midwest",
    "latitude": 45.4569,
    "longitude": -84.9475,
    "elevation_summit_ft": 1260,
    "snow_24h": 0.0,
    "snow_48h": 0.1,
    "snow_7d": 0.6,
    "current_temp": 14.7,
    "conditions": "Overcast"
  },
  {
    "slug": "crystal-mountain-mi",
    "name": "Crystal Mountain Michigan",
    "state_province": "MI",
    "region": "Midwest",
    "latitude": 44.5522,
    "longitude": -85.7597,
    "elevation_summit_ft": 1200,
    "snow_24h": 0.0,
    "snow_48h": 0.0,
    "snow_7d": 0.0,
    "current_temp": 17.8,
    "conditions": "Overcast"
  },
  {
    "slug": "nubs-nob",
    "name": "Nub's Nob",
    "state_province": "MI",
    "region": "Midwest",
    "latitude": 45.4681,
    "longitude": -84.9067,
    "elevation_summit_ft": 1300,
    "snow_24h": 0.0,
    "snow_48h": 0.1,
    "snow_7d": 0.8,
    "current_temp": 13.6,
    "conditions": "Overcast"
  },
  {
    "slug": "indianhead-mountain",
    "name": "Indianhead Mountain",
    "state_province": "MI",
    "region": "Midwest",
    "latitude": 46.5281,
    "longitude": -89.9711,
    "elevation_summit_ft": 1900,
    "snow_24h": 0.0,
    "snow_48h": 0.0,
    "snow_7d": 0.7,
    "current_temp": 8.5,
    "conditions": "Clear"
  },
  {
    "slug": "searchmont",
    "name": "Searchmont",
    "state_province": "MI",
    "region": "Midwest",
    "latitude": 46.7667,
    "longitude": -83.95,
    "elevation_summit_ft": 1440,
    "snow_24h": 0.1,
    "snow_48h": 0.1,
    "snow_7d": 0.4,
    "current_temp": 7.0,
    "conditions": "Overcast"
  },
  {
    "slug": "shanty-creek",
    "name": "Shanty Creek",
    "state_province": "MI",
    "region": "Midwest",
    "latitude": 44.8256,
    "longitude": -85.2053,
    "elevation_summit_ft": 1200,
    "snow_24h": 0.0,
    "snow_48h": 0.0,
    "snow_7d": 0.2,
    "current_temp": 17.0,
    "conditions": "Overcast"
  },
  {
    "slug": "caberfae-peaks",
    "name": "Caberfae Peaks",
    "state_province": "MI",
    "region": "Midwest",
    "latitude": 44.2458,
    "longitude": -85.5281,
    "elevation_summit_ft": 1600,
    "snow_24h": 0.0,
    "snow_48h": 0.0,
    "snow_7d": 0.0,
    "current_temp": 17.9,
    "conditions": "Overcast"
  },
  {
    "slug": "afton-alps",
    "name": "Afton Alps",
    "state_province": "MN",
    "region": "Midwest",
    "latitude": 44.8536,
    "longitude": -92.7889,
    "elevation_summit_ft": 1100,
    "snow_24h": 0.0,
    "snow_48h": 0.0,
    "snow_7d": 0.1,
    "current_temp": 18.9,
    "conditions": "Overcast"
  },
  {
    "slug": "welch-village",
    "name": "Welch Village",
    "state_province": "MN",
    "region": "Midwest",
    "latitude": 44.5644,
    "longitude": -92.6947,
    "elevation_summit_ft": 1340,
    "snow_24h": 0.0,
    "snow_48h": 0.0,
    "snow_7d": 0.2,
    "current_temp": 19.6,
    "conditions": "Overcast"
  },
  {
    "slug": "hidden-valley-mo",
    "name": "Hidden Valley",
    "state_province": "MO",
    "region": "Midwest",
    "latitude": 38.5139,
    "longitude": -90.6706,
    "elevation_summit_ft": 720,
    "snow_24h": 0.0,
    "snow_48h": 0.0,
    "snow_7d": 0.0,
    "current_temp": 58.2,
    "conditions": "Overcast"
  },
  {
    "slug": "perfect-north-slopes",
    "name": "Perfect North Slopes",
    "state_province": "IN",
    "region": "Midwest",
    "latitude": 39.1647,
    "longitude": -84.9047,
    "elevation_summit_ft": 890,
    "snow_24h": 1.6,
    "snow_48h": 1.7,
    "snow_7d": 1.7,
    "current_temp": 55.7,
    "conditions": "Overcast"
  },
  {
    "slug": "mad-river-mountain",
    "name": "Mad River Mountain",
    "state_province": "OH",
    "region": "Midwest",
    "latitude": 40.3211,
    "longitude": -83.6892,
    "elevation_summit_ft": 1460,
    "snow_24h": 0.0,
    "snow_48h": 0.0,
    "snow_7d": 0.0,
    "current_temp": 46.1,
    "conditions": "Overcast"
  },
  {
    "slug": "boston-mills-brandywine",
    "name": "Boston Mills / Brandywine",
    "state_province": "OH",
    "region": "Midwest",
    "latitude": 41.2472,
    "longitude": -81.5064,
    "elevation_summit_ft": 1110,
    "snow_24h": 0.0,
    "snow_48h": 0.2,
    "snow_7d": 0.2,
    "current_temp": 35.8,
    "conditions": "Overcast"
  },
  {
    "slug": "alpine-valley-oh",
    "name": "Alpine Valley Ohio",
    "state_province": "OH",
    "region": "Midwest",
    "latitude": 41.4608,
    "longitude": -81.0425,
    "elevation_summit_ft": 1100,
    "snow_24h": 0.0,
    "snow_48h": 0.3,
    "snow_7d": 0.3,
    "current_temp": 31.3,
    "conditions": "Overcast"
  },
  {
    "slug": "chestnut-mountain",
    "name": "Chestnut Mountain",
    "state_province": "IL",
    "region": "Midwest",
    "latitude": 42.3272,
    "longitude": -90.3539,
    "elevation_summit_ft": 1067,
    "snow_24h": 0.0,
    "snow_48h": 0.0,
    "snow_7d": 0.1,
    "current_temp": 25.0,
    "conditions": "Overcast"
  },
  {
    "slug": "ober-gatlinburg",
    "name": "Ober Gatlinburg",
    "state_province": "TN",
    "region": "Southeast",
    "latitude": 35.7103,
    "longitude": -83.5253,
    "elevation_summit_ft": 3640,
    "snow_24h": 0.0,
    "snow_48h": 0.0,
    "snow_7d": 0.0,
    "current_temp": 58.8,
    "conditions": "Clear"
  },
  {
    "slug": "cloudmont",
    "name": "Cloudmont",
    "state_province": "AL",
    "region": "Southeast",
    "latitude": 34.6592,
    "longitude": -85.6039,
    "elevation_summit_ft": 1800,
    "snow_24h": 0.0,
    "snow_48h": 0.0,
    "snow_7d": 0.0,
    "current_temp": 63.7,
    "conditions": "Clear"
  },
  {
    "slug": "pats-peak",
    "name": "Pats Peak",
    "state_province": "NH",
    "region": "Northeast / New England",
    "latitude": 43.1756,
    "longitude": -71.7758,
    "elevation_summit_ft": 1458,
    "snow_24h": 0.0,
    "snow_48h": 0.0,
    "snow_7d": 5.4,
    "current_temp": 38.0,
    "conditions": "Clear"
  },
  {
    "slug": "ski-butternut",
    "name": "Ski Butternut",
    "state_province": "MA",
    "region": "Northeast / New England",
    "latitude": 42.1611,
    "longitude": -73.305,
    "elevation_summit_ft": 1550,
    "snow_24h": 0.0,
    "snow_48h": 0.0,
    "snow_7d": 1.9,
    "current_temp": 37.2,
    "conditions": "Clear"
  },
  {
    "slug": "catamount",
    "name": "Catamount",
    "state_province": "NY",
    "region": "Northeast / New England",
    "latitude": 42.1661,
    "longitude": -73.4836,
    "elevation_summit_ft": 2000,
    "snow_24h": 0.0,
    "snow_48h": 0.0,
    "snow_7d": 3.3,
    "current_temp": 37.8,
    "conditions": "Clear"
  },
  {
    "slug": "mount-bohemia",
    "name": "Mount Bohemia",
    "state_province": "MI",
    "region": "Midwest",
    "latitude": 47.3867,
    "longitude": -88.0183,
    "elevation_summit_ft": 1480,
    "snow_24h": 0.0,
    "snow_48h": 0.0,
    "snow_7d": 0.8,
    "current_temp": 5.1,
    "conditions": "Partly Cloudy"
  },
  {
    "slug": "sundown-mountain",
    "name": "Sundown Mountain",
    "state_province": "IA",
    "region": "Midwest",
    "latitude": 42.5039,
    "longitude": -90.8192,
    "elevation_summit_ft": 1100,
    "snow_24h": 0.0,
    "snow_48h": 0.0,
    "snow_7d": 0.2,
    "current_temp": 23.5,
    "conditions": "Overcast"
  },
  {
    "slug": "bluewood",
    "name": "Bluewood",
    "state_province": "WA",
    "region": "Pacific Northwest",
    "latitude": 46.0822,
    "longitude": -117.8531,
    "elevation_summit_ft": 5670,
    "snow_24h": 0.0,
    "snow_48h": 0.0,
    "snow_7d": 1.5,
    "current_temp": 42.5,
    "conditions": "Overcast"
  },
  {
    "slug": "anthony-lakes",
    "name": "Anthony Lakes",
    "state_province": "OR",
    "region": "Pacific Northwest",
    "latitude": 44.9597,
    "longitude": -118.2314,
    "elevation_summit_ft": 8000,
    "snow_24h": 2.3,
    "snow_48h": 2.3,
    "snow_7d": 8.5,
    "current_temp": 39.0,
    "conditions": "Overcast"
  },
  {
    "slug": "kelly-canyon",
    "name": "Kelly Canyon",
    "state_province": "ID",
    "region": "Northern Rockies",
    "latitude": 43.6339,
    "longitude": -111.705,
    "elevation_summit_ft": 7100,
    "snow_24h": 0.0,
    "snow_48h": 0.0,
    "snow_7d": 0.8,
    "current_temp": 49.5,
    "conditions": "Overcast"
  },
  {
    "slug": "pebble-creek",
    "name": "Pebble Creek",
    "state_province": "ID",
    "region": "Northern Rockies",
    "latitude": 42.6589,
    "longitude": -112.1022,
    "elevation_summit_ft": 9200,
    "snow_24h": 0.0,
    "snow_48h": 0.2,
    "snow_7d": 3.2,
    "current_temp": 44.6,
    "conditions": "Overcast"
  },
  {
    "slug": "meadowlark",
    "name": "Meadowlark",
    "state_province": "WY",
    "region": "Northern Rockies",
    "latitude": 44.5617,
    "longitude": -107.3239,
    "elevation_summit_ft": 9200,
    "snow_24h": 0.0,
    "snow_48h": 1.0,
    "snow_7d": 9.2,
    "current_temp": 25.1,
    "conditions": "Clear"
  },
  {
    "slug": "sleeping-giant",
    "name": "Sleeping Giant",
    "state_province": "WY",
    "region": "Northern Rockies",
    "latitude": 44.4839,
    "longitude": -109.9006,
    "elevation_summit_ft": 8200,
    "snow_24h": 0.3,
    "snow_48h": 0.4,
    "snow_7d": 3.4,
    "current_temp": 36.4,
    "conditions": "Clear"
  },
  {
    "slug": "blacktail-mountain",
    "name": "Blacktail Mountain",
    "state_province": "MT",
    "region": "Northern Rockies",
    "latitude": 48.0081,
    "longitude": -114.3678,
    "elevation_summit_ft": 6676,
    "snow_24h": 0.0,
    "snow_48h": 0.0,
    "snow_7d": 1.5,
    "current_temp": 31.9,
    "conditions": "Clear"
  },
  {
    "slug": "teton-pass-ski-area",
    "name": "Teton Pass Ski Area",
    "state_province": "MT",
    "region": "Northern Rockies",
    "latitude": 47.8056,
    "longitude": -112.5808,
    "elevation_summit_ft": 6800,
    "snow_24h": 0.0,
    "snow_48h": 0.0,
    "snow_7d": 0.0,
    "current_temp": 28.5,
    "conditions": "Clear"
  },
  {
    "slug": "donner-ski-ranch",
    "name": "Donner Ski Ranch",
    "state_province": "CA",
    "region": "California / Sierra",
    "latitude": 39.3178,
    "longitude": -120.3306,
    "elevation_summit_ft": 8012,
    "snow_24h": 0.1,
    "snow_48h": 0.1,
    "snow_7d": 1.2,
    "current_temp": 46.9,
    "conditions": "Overcast"
  },
  {
    "slug": "winterplace",
    "name": "Winterplace",
    "state_province": "WV",
    "region": "Northeast / New England",
    "latitude": 37.6117,
    "longitude": -81.0819,
    "elevation_summit_ft": 3500,
    "snow_24h": 0.2,
    "snow_48h": 2.2,
    "snow_7d": 2.2,
    "current_temp": 49.0,
    "conditions": "Clear"
  },
  {
    "slug": "sapphire-valley",
    "name": "Sapphire Valley",
    "state_province": "NC",
    "region": "Northeast / New England",
    "latitude": 35.1106,
    "longitude": -83.0606,
    "elevation_summit_ft": 3600,
    "snow_24h": 0.0,
    "snow_48h": 0.0,
    "snow_7d": 0.0,
    "current_temp": 51.2,
    "conditions": "Clear"
  },
  {
    "slug": "badger-pass",
    "name": "Badger Pass",
    "state_province": "CA",
    "region": "California / Sierra",
    "latitude": 37.6628,
    "longitude": -119.6633,
    "elevation_summit_ft": 8000,
    "snow_24h": 0.0,
    "snow_48h": 0.0,
    "snow_7d": 0.1,
    "current_temp": 50.5,
    "conditions": "Overcast"
  },
  {
    "slug": "hogadon",
    "name": "Hogadon",
    "state_province": "WY",
    "region": "Northern Rockies",
    "latitude": 42.7528,
    "longitude": -106.3139,
    "elevation_summit_ft": 8300,
    "snow_24h": 0.0,
    "snow_48h": 2.4,
    "snow_7d": 9.8,
    "current_temp": 44.3,
    "conditions": "Overcast"
  },
  {
    "slug": "white-pine",
    "name": "White Pine",
    "state_province": "WY",
    "region": "Northern Rockies",
    "latitude": 42.7675,
    "longitude": -109.7414,
    "elevation_summit_ft": 9100,
    "snow_24h": 0.7,
    "snow_48h": 1.3,
    "snow_7d": 1.9,
    "current_temp": 43.0,
    "conditions": "Overcast"
  },
  {
    "slug": "pine-knob",
    "name": "Pine Knob",
    "state_province": "MI",
    "region": "Midwest",
    "latitude": 42.7578,
    "longitude": -83.3747,
    "elevation_summit_ft": 1250,
    "snow_24h": 0.0,
    "snow_48h": 0.0,
    "snow_7d": 0.1,
    "current_temp": 27.3,
    "conditions": "Snow"
  },
  {
    "slug": "snow-trails",
    "name": "Snow Trails",
    "state_province": "OH",
    "region": "Midwest",
    "latitude": 40.6458,
    "longitude": -82.4572,
    "elevation_summit_ft": 1450,
    "snow_24h": 0.0,
    "snow_48h": 0.0,
    "snow_7d": 0.0,
    "current_temp": 40.8,
    "conditions": "Clear"
  },
  {
    "slug": "whistler-blackcomb",
    "name": "Whistler Blackcomb",
    "state_province": "BC",
    "region": "British Columbia",
    "latitude": 50.1163,
    "longitude": -122.9574,
    "elevation_summit_ft": 7494,
    "snow_24h": 0.0,
    "snow_48h": 0.0,
    "snow_7d": 0.1,
    "current_temp": 42.5,
    "conditions": "Clear"
  },
  {
    "slug": "revelstoke-mountain",
    "name": "Revelstoke Mountain",
    "state_province": "BC",
    "region": "British Columbia",
    "latitude": 50.9578,
    "longitude": -118.1639,
    "elevation_summit_ft": 7300,
    "snow_24h": 0.0,
    "snow_48h": 0.0,
    "snow_7d": 0.0,
    "current_temp": 41.6,
    "conditions": "Clear"
  },
  {
    "slug": "kicking-horse",
    "name": "Kicking Horse",
    "state_province": "BC",
    "region": "British Columbia",
    "latitude": 51.2978,
    "longitude": -117.0458,
    "elevation_summit_ft": 8033,
    "snow_24h": 0.0,
    "snow_48h": 0.0,
    "snow_7d": 1.9,
    "current_temp": 28.0,
    "conditions": "Clear"
  },
  {
    "slug": "sun-peaks",
    "name": "Sun Peaks",
    "state_province": "BC",
    "region": "British Columbia",
    "latitude": 50.8836,
    "longitude": -119.9017,
    "elevation_summit_ft": 6824,
    "snow_24h": 0.0,
    "snow_48h": 0.1,
    "snow_7d": 2.2,
    "current_temp": 30.7,
    "conditions": "Partly Cloudy"
  },
  {
    "slug": "big-white",
    "name": "Big White",
    "state_province": "BC",
    "region": "British Columbia",
    "latitude": 49.7292,
    "longitude": -118.9325,
    "elevation_summit_ft": 7608,
    "snow_24h": 0.0,
    "snow_48h": 0.0,
    "snow_7d": 9.0,
    "current_temp": 28.6,
    "conditions": "Clear"
  },
  {
    "slug": "silver-star",
    "name": "Silver Star",
    "state_province": "BC",
    "region": "British Columbia",
    "latitude": 50.3578,
    "longitude": -119.0622,
    "elevation_summit_ft": 6280,
    "snow_24h": 0.0,
    "snow_48h": 0.0,
    "snow_7d": 3.4,
    "current_temp": 30.6,
    "conditions": "Clear"
  },
  {
    "slug": "fernie",
    "name": "Fernie Alpine Resort",
    "state_province": "BC",
    "region": "British Columbia",
    "latitude": 49.4631,
    "longitude": -115.0875,
    "elevation_summit_ft": 6316,
    "snow_24h": 0.0,
    "snow_48h": 0.0,
    "snow_7d": 0.1,
    "current_temp": 41.6,
    "conditions": "Clear"
  },
  {
    "slug": "lake-louise",
    "name": "Lake Louise",
    "state_province": "AB",
    "region": "Alberta",
    "latitude": 51.4417,
    "longitude": -116.1522,
    "elevation_summit_ft": 8766,
    "snow_24h": 0.0,
    "snow_48h": 0.0,
    "snow_7d": 2.6,
    "current_temp": 22.3,
    "conditions": "Clear"
  },
  {
    "slug": "sunshine-village",
    "name": "Sunshine Village",
    "state_province": "AB",
    "region": "Alberta",
    "latitude": 51.0778,
    "longitude": -115.7692,
    "elevation_summit_ft": 8954,
    "snow_24h": 0.0,
    "snow_48h": 0.0,
    "snow_7d": 1.7,
    "current_temp": 16.6,
    "conditions": "Clear"
  },
  {
    "slug": "nakiska",
    "name": "Nakiska",
    "state_province": "AB",
    "region": "Alberta",
    "latitude": 50.9422,
    "longitude": -115.1508,
    "elevation_summit_ft": 7415,
    "snow_24h": 0.0,
    "snow_48h": 0.0,
    "snow_7d": 0.0,
    "current_temp": 28.9,
    "conditions": "Clear"
  },
  {
    "slug": "marmot-basin",
    "name": "Marmot Basin",
    "state_province": "AB",
    "region": "Alberta",
    "latitude": 52.8047,
    "longitude": -118.0836,
    "elevation_summit_ft": 8570,
    "snow_24h": 0.0,
    "snow_48h": 0.0,
    "snow_7d": 1.7,
    "current_temp": 17.5,
    "conditions": "Clear"
  },
  {
    "slug": "mont-tremblant",
    "name": "Mont-Tremblant",
    "state_province": "QC",
    "region": "Eastern Canada",
    "latitude": 46.2094,
    "longitude": -74.5856,
    "elevation_summit_ft": 2871,
    "snow_24h": 0.0,
    "snow_48h": 0.0,
    "snow_7d": 0.8,
    "current_temp": 19.9,
    "conditions": "Clear"
  },
  {
    "slug": "blue-mountain-on",
    "name": "Blue Mountain",
    "state_province": "ON",
    "region": "Eastern Canada",
    "latitude": 44.5019,
    "longitude": -80.3158,
    "elevation_summit_ft": 1483,
    "snow_24h": 0.0,
    "snow_48h": 0.0,
    "snow_7d": 0.4,
    "current_temp": 18.6,
    "conditions": "Clear"
  },
  {
    "slug": "mont-sainte-anne",
    "name": "Mont-Sainte-Anne",
    "state_province": "QC",
    "region": "Eastern Canada",
    "latitude": 47.0775,
    "longitude": -70.9067,
    "elevation_summit_ft": 2625,
    "snow_24h": 0.0,
    "snow_48h": 0.5,
    "snow_7d": 2.5,
    "current_temp": 29.5,
    "conditions": "Clear"
  },
  {
    "slug": "le-massif",
    "name": "Le Massif",
    "state_province": "QC",
    "region": "Eastern Canada",
    "latitude": 47.2814,
    "longitude": -70.6258,
    "elevation_summit_ft": 2645,
    "snow_24h": 0.0,
    "snow_48h": 0.5,
    "snow_7d": 3.2,
    "current_temp": 23.0,
    "conditions": "Clear"
  },
  {
    "slug": "panorama-mountain",
    "name": "Panorama Mountain",
    "state_province": "BC",
    "region": "British Columbia",
    "latitude": 50.4592,
    "longitude": -116.2389,
    "elevation_summit_ft": 7800,
    "snow_24h": 0.0,
    "snow_48h": 0.0,
    "snow_7d": 0.7,
    "current_temp": 31.9,
    "conditions": "Clear"
  },
  {
    "slug": "red-mountain",
    "name": "Red Mountain",
    "state_province": "BC",
    "region": "British Columbia",
    "latitude": 49.1039,
    "longitude": -117.8169,
    "elevation_summit_ft": 6850,
    "snow_24h": 0.0,
    "snow_48h": 0.0,
    "snow_7d": 0.6,
    "current_temp": 39.0,
    "conditions": "Clear"
  },
  {
    "slug": "whitewater",
    "name": "Whitewater",
    "state_province": "BC",
    "region": "British Columbia",
    "latitude": 49.2856,
    "longitude": -117.15,
    "elevation_summit_ft": 6710,
    "snow_24h": 0.0,
    "snow_48h": 0.0,
    "snow_7d": 2.4,
    "current_temp": 34.4,
    "conditions": "Clear"
  },
  {
    "slug": "apex-mountain",
    "name": "Apex Mountain",
    "state_province": "BC",
    "region": "British Columbia",
    "latitude": 49.395,
    "longitude": -119.9042,
    "elevation_summit_ft": 7187,
    "snow_24h": 0.0,
    "snow_48h": 0.0,
    "snow_7d": 2.0,
    "current_temp": 35.4,
    "conditions": "Clear"
  },
  {
    "slug": "cypress-mountain",
    "name": "Cypress Mountain",
    "state_province": "BC",
    "region": "British Columbia",
    "latitude": 49.3958,
    "longitude": -123.2042,
    "elevation_summit_ft": 4724,
    "snow_24h": 0.0,
    "snow_48h": 0.0,
    "snow_7d": 0.4,
    "current_temp": 39.1,
    "conditions": "Clear"
  },
  {
    "slug": "grouse-mountain",
    "name": "Grouse Mountain",
    "state_province": "BC",
    "region": "British Columbia",
    "latitude": 49.3758,
    "longitude": -123.0828,
    "elevation_summit_ft": 4100,
    "snow_24h": 0.0,
    "snow_48h": 0.0,
    "snow_7d": 1.5,
    "current_temp": 40.5,
    "conditions": "Clear"
  },
  {
    "slug": "mt-seymour",
    "name": "Mt. Seymour",
    "state_province": "BC",
    "region": "British Columbia",
    "latitude": 49.3678,
    "longitude": -122.9489,
    "elevation_summit_ft": 4200,
    "snow_24h": 0.0,
    "snow_48h": 0.0,
    "snow_7d": 1.6,
    "current_temp": 39.5,
    "conditions": "Clear"
  },
  {
    "slug": "mount-washington",
    "name": "Mount Washington",
    "state_province": "BC",
    "region": "British Columbia",
    "latitude": 49.7375,
    "longitude": -125.3044,
    "elevation_summit_ft": 5200,
    "snow_24h": 0.0,
    "snow_48h": 1.3,
    "snow_7d": 2.7,
    "current_temp": 34.4,
    "conditions": "Clear"
  },
  {
    "slug": "kimberley",
    "name": "Kimberley Alpine Resort",
    "state_province": "BC",
    "region": "British Columbia",
    "latitude": 49.6903,
    "longitude": -115.9761,
    "elevation_summit_ft": 6500,
    "snow_24h": 0.0,
    "snow_48h": 0.0,
    "snow_7d": 0.3,
    "current_temp": 37.7,
    "conditions": "Clear"
  },
  {
    "slug": "sasquatch-mountain",
    "name": "Sasquatch Mountain",
    "state_province": "BC",
    "region": "British Columbia",
    "latitude": 49.2281,
    "longitude": -121.9442,
    "elevation_summit_ft": 5100,
    "snow_24h": 0.0,
    "snow_48h": 0.0,
    "snow_7d": 0.0,
    "current_temp": 51.4,
    "conditions": "Clear"
  },
  {
    "slug": "powder-king",
    "name": "Powder King",
    "state_province": "BC",
    "region": "British Columbia",
    "latitude": 55.2689,
    "longitude": -122.6728,
    "elevation_summit_ft": 5730,
    "snow_24h": 1.3,
    "snow_48h": 2.3,
    "snow_7d": 13.9,
    "current_temp": 24.6,
    "conditions": "Overcast"
  },
  {
    "slug": "hudson-bay-mountain",
    "name": "Hudson Bay Mountain",
    "state_province": "BC",
    "region": "British Columbia",
    "latitude": 54.7656,
    "longitude": -127.2697,
    "elevation_summit_ft": 5400,
    "snow_24h": 0.2,
    "snow_48h": 0.6,
    "snow_7d": 4.6,
    "current_temp": 19.0,
    "conditions": "Partly Cloudy"
  },
  {
    "slug": "shames-mountain",
    "name": "Shames Mountain",
    "state_province": "BC",
    "region": "British Columbia",
    "latitude": 54.6511,
    "longitude": -128.9478,
    "elevation_summit_ft": 4724,
    "snow_24h": 6.0,
    "snow_48h": 12.9,
    "snow_7d": 51.8,
    "current_temp": 13.3,
    "conditions": "Overcast"
  },
  {
    "slug": "troll-resort",
    "name": "Troll Resort",
    "state_province": "BC",
    "region": "British Columbia",
    "latitude": 53.0417,
    "longitude": -121.4722,
    "elevation_summit_ft": 5200,
    "snow_24h": 0.6,
    "snow_48h": 1.0,
    "snow_7d": 9.2,
    "current_temp": 22.4,
    "conditions": "Clear"
  },
  {
    "slug": "castle-mountain",
    "name": "Castle Mountain",
    "state_province": "AB",
    "region": "Alberta",
    "latitude": 49.3078,
    "longitude": -114.4108,
    "elevation_summit_ft": 7463,
    "snow_24h": 0.0,
    "snow_48h": 0.0,
    "snow_7d": 0.2,
    "current_temp": 33.9,
    "conditions": "Clear"
  },
  {
    "slug": "norquay",
    "name": "Norquay",
    "state_province": "AB",
    "region": "Alberta",
    "latitude": 51.2047,
    "longitude": -115.6022,
    "elevation_summit_ft": 7000,
    "snow_24h": 0.0,
    "snow_48h": 0.0,
    "snow_7d": 0.2,
    "current_temp": 25.4,
    "conditions": "Clear"
  },
  {
    "slug": "canyon-ski-resort",
    "name": "Canyon Ski Resort",
    "state_province": "AB",
    "region": "Alberta",
    "latitude": 52.4197,
    "longitude": -114.0481,
    "elevation_summit_ft": 3300,
    "snow_24h": 0.0,
    "snow_48h": 0.0,
    "snow_7d": 0.2,
    "current_temp": 14.1,
    "conditions": "Clear"
  },
  {
    "slug": "rabbit-hill",
    "name": "Rabbit Hill",
    "state_province": "AB",
    "region": "Alberta",
    "latitude": 53.3956,
    "longitude": -113.5914,
    "elevation_summit_ft": 2500,
    "snow_24h": 0.2,
    "snow_48h": 0.3,
    "snow_7d": 0.6,
    "current_temp": 12.0,
    "conditions": "Clear"
  },
  {
    "slug": "stoneham",
    "name": "Stoneham",
    "state_province": "QC",
    "region": "Eastern Canada",
    "latitude": 46.9519,
    "longitude": -71.3581,
    "elevation_summit_ft": 2001,
    "snow_24h": 0.0,
    "snow_48h": 0.8,
    "snow_7d": 3.3,
    "current_temp": 27.4,
    "conditions": "Clear"
  },
  {
    "slug": "mont-sutton",
    "name": "Mont Sutton",
    "state_province": "QC",
    "region": "Eastern Canada",
    "latitude": 45.1028,
    "longitude": -72.5639,
    "elevation_summit_ft": 2970,
    "snow_24h": 0.3,
    "snow_48h": 0.3,
    "snow_7d": 2.1,
    "current_temp": 29.6,
    "conditions": "Clear"
  },
  {
    "slug": "bromont",
    "name": "Bromont",
    "state_province": "QC",
    "region": "Eastern Canada",
    "latitude": 45.3022,
    "longitude": -72.6578,
    "elevation_summit_ft": 1558,
    "snow_24h": 0.1,
    "snow_48h": 0.1,
    "snow_7d": 1.1,
    "current_temp": 35.0,
    "conditions": "Clear"
  },
  {
    "slug": "mont-orford",
    "name": "Mont Orford",
    "state_province": "QC",
    "region": "Eastern Canada",
    "latitude": 45.3272,
    "longitude": -72.1828,
    "elevation_summit_ft": 2750,
    "snow_24h": 0.1,
    "snow_48h": 0.1,
    "snow_7d": 1.2,
    "current_temp": 34.8,
    "conditions": "Clear"
  },
  {
    "slug": "owls-head",
    "name": "Mont-Sauvage (Owl's Head)",
    "state_province": "QC",
    "region": "Eastern Canada",
    "latitude": 45.0778,
    "longitude": -72.2611,
    "elevation_summit_ft": 2500,
    "snow_24h": 0.1,
    "snow_48h": 0.1,
    "snow_7d": 1.6,
    "current_temp": 34.2,
    "conditions": "Clear"
  },
  {
    "slug": "le-relais",
    "name": "Le Relais",
    "state_province": "QC",
    "region": "Eastern Canada",
    "latitude": 46.9606,
    "longitude": -71.2758,
    "elevation_summit_ft": 1700,
    "snow_24h": 0.0,
    "snow_48h": 0.8,
    "snow_7d": 3.3,
    "current_temp": 27.5,
    "conditions": "Clear"
  },
  {
    "slug": "sommet-saint-sauveur",
    "name": "Sommet Saint-Sauveur",
    "state_province": "QC",
    "region": "Eastern Canada",
    "latitude": 45.9422,
    "longitude": -74.1722,
    "elevation_summit_ft": 1380,
    "snow_24h": 0.0,
    "snow_48h": 0.0,
    "snow_7d": 3.3,
    "current_temp": 22.2,
    "conditions": "Clear"
  },
  {
    "slug": "mont-blanc",
    "name": "Mont Blanc",
    "state_province": "QC",
    "region": "Eastern Canada",
    "latitude": 46.2414,
    "longitude": -74.5908,
    "elevation_summit_ft": 2178,
    "snow_24h": 0.0,
    "snow_48h": 0.0,
    "snow_7d": 1.5,
    "current_temp": 16.6,
    "conditions": "Clear"
  },
  {
    "slug": "tremblant",
    "name": "Tremblant",
    "state_province": "QC",
    "region": "Eastern Canada",
    "latitude": 46.2094,
    "longitude": -74.5856,
    "elevation_summit_ft": 2871,
    "snow_24h": 0.0,
    "snow_48h": 0.0,
    "snow_7d": 0.8,
    "current_temp": 19.9,
    "conditions": "Clear"
  },
  {
    "slug": "horseshoe-resort",
    "name": "Horseshoe Resort",
    "state_province": "ON",
    "region": "Eastern Canada",
    "latitude": 44.4814,
    "longitude": -79.6364,
    "elevation_summit_ft": 1240,
    "snow_24h": 0.0,
    "snow_48h": 0.0,
    "snow_7d": 0.6,
    "current_temp": 19.0,
    "conditions": "Overcast"
  },
  {
    "slug": "mount-st-louis-moonstone",
    "name": "Mount St. Louis Moonstone",
    "state_province": "ON",
    "region": "Eastern Canada",
    "latitude": 44.56,
    "longitude": -79.6036,
    "elevation_summit_ft": 1460,
    "snow_24h": 0.0,
    "snow_48h": 0.0,
    "snow_7d": 0.7,
    "current_temp": 19.0,
    "conditions": "Overcast"
  },
  {
    "slug": "searchmont-resort",
    "name": "Searchmont Resort",
    "state_province": "ON",
    "region": "Eastern Canada",
    "latitude": 46.7647,
    "longitude": -83.9528,
    "elevation_summit_ft": 1440,
    "snow_24h": 0.0,
    "snow_48h": 0.1,
    "snow_7d": 0.5,
    "current_temp": 6.8,
    "conditions": "Overcast"
  },
  {
    "slug": "lakeridge",
    "name": "Lakeridge",
    "state_province": "ON",
    "region": "Eastern Canada",
    "latitude": 44.0658,
    "longitude": -79.0531,
    "elevation_summit_ft": 1192,
    "snow_24h": 0.0,
    "snow_48h": 0.0,
    "snow_7d": 1.0,
    "current_temp": 20.2,
    "conditions": "Overcast"
  },
  {
    "slug": "calabogie-peaks",
    "name": "Calabogie Peaks",
    "state_province": "ON",
    "region": "Eastern Canada",
    "latitude": 45.3069,
    "longitude": -76.7467,
    "elevation_summit_ft": 1200,
    "snow_24h": 0.0,
    "snow_48h": 0.0,
    "snow_7d": 1.7,
    "current_temp": 24.1,
    "conditions": "Overcast"
  },
  {
    "slug": "crabbe-mountain",
    "name": "Crabbe Mountain",
    "state_province": "NB",
    "region": "Eastern Canada",
    "latitude": 45.9353,
    "longitude": -66.8983,
    "elevation_summit_ft": 1090,
    "snow_24h": 0.1,
    "snow_48h": 0.1,
    "snow_7d": 1.6,
    "current_temp": 36.8,
    "conditions": "Clear"
  },
  {
    "slug": "ski-wentworth",
    "name": "Ski Wentworth",
    "state_province": "NS",
    "region": "Eastern Canada",
    "latitude": 45.5661,
    "longitude": -63.5572,
    "elevation_summit_ft": 1040,
    "snow_24h": 1.1,
    "snow_48h": 1.1,
    "snow_7d": 4.8,
    "current_temp": 31.3,
    "conditions": "Clear"
  },
  {
    "slug": "marble-mountain",
    "name": "Marble Mountain",
    "state_province": "NL",
    "region": "Eastern Canada",
    "latitude": 48.8258,
    "longitude": -57.78,
    "elevation_summit_ft": 1700,
    "snow_24h": 3.5,
    "snow_48h": 7.0,
    "snow_7d": 14.9,
    "current_temp": 17.0,
    "conditions": "Partly Cloudy"
  },
  {
    "slug": "poley-mountain",
    "name": "Poley Mountain",
    "state_province": "NB",
    "region": "Eastern Canada",
    "latitude": 45.7083,
    "longitude": -65.7397,
    "elevation_summit_ft": 1200,
    "snow_24h": 0.7,
    "snow_48h": 0.7,
    "snow_7d": 2.6,
    "current_temp": 38.6,
    "conditions": "Overcast"
  },
  {
    "slug": "camp-fortune",
    "name": "Camp Fortune",
    "state_province": "QC",
    "region": "Eastern Canada",
    "latitude": 45.4839,
    "longitude": -75.8253,
    "elevation_summit_ft": 1050,
    "snow_24h": 0.0,
    "snow_48h": 0.0,
    "snow_7d": 2.2,
    "current_temp": 24.1,
    "conditions": "Overcast"
  },
  {
    "slug": "edelweiss-valley",
    "name": "Edelweiss Valley",
    "state_province": "QC",
    "region": "Eastern Canada",
    "latitude": 45.5461,
    "longitude": -75.8039,
    "elevation_summit_ft": 1230,
    "snow_24h": 0.0,
    "snow_48h": 0.0,
    "snow_7d": 1.9,
    "current_temp": 24.2,
    "conditions": "Overcast"
  },
  {
    "slug": "gray-rocks",
    "name": "Tremblant (Gray Rocks)",
    "state_province": "QC",
    "region": "Eastern Canada",
    "latitude": 46.2178,
    "longitude": -74.5872,
    "elevation_summit_ft": 1300,
    "snow_24h": 0.0,
    "snow_48h": 0.0,
    "snow_7d": 1.0,
    "current_temp": 19.0,
    "conditions": "Clear"
  }
]